id,name,typecode,addr,gcj,wgs,cell_id,wgs_lng,wgs_lat,kind
B001543CFE,上海汇苑宾馆,100100,惠南镇城南路398号,"121.756754,31.040039","121.752397,31.042156",10323,121.752397,31.042156,hotel
B0LKNLRAM1,居灿公寓,100200,惠园路与南园路交叉口东240米,"121.748725,31.035175","121.744364,31.037294",10323,121.744364,31.037294,hotel
B0LKGU273H,吉祥公寓D座,100200,惠南镇南园路149号吉祥公寓,"121.747125,31.036775","121.742764,31.038893",10323,121.742764,31.038893,hotel
B0FFGSCDE7,上海国展宝龙丽筠酒店,100102,新府中路1550号,"121.233789,31.227904","121.229360,31.229923",4122,121.22936,31.229923,hotel
B0FFKFWHDO,美豪丽致酒店(上海虹桥枢纽店),100100,"新府中路1399弄203号,205 号,206 号,207 号,208 号","121.231856,31.228068","121.227426,31.230086",4122,121.227426,31.230086,hotel
B0FFGW5FLL,上海虹桥宝龙广场,060100,华新镇新府中路1536弄宝龙天地,"121.234524,31.227954","121.230095,31.229973",4122,121.230095,31.229973,mall
B0FFJY5CMK,上海佐巢酒店,100100,华新镇新府中路1536弄5号4层,"121.235859,31.227814","121.231431,31.229834",4122,121.231431,31.229834,hotel
B0L13R74UX,上海国展宝龙丽筠酒店-大堂,100100,华雅路与新府中路交叉口东120米,"121.233841,31.227808","121.229412,31.229827",4122,121.229412,31.229827,hotel
B0G3LOHYWJ,光明乐缤纷(青浦光明荟店),060101,新府中路1399号青浦光明荟,"121.230195,31.229019","121.225763,31.231035",4122,121.225763,31.231035,mall
B0JU4XIFP5,LOFT公寓,100200,华志路311弄1号1楼,"121.23627,31.231248","121.231842,31.233267",4122,121.231842,31.233267,hotel
B0FFIVZP1W,辰好酒店(上海野生动物园店),100100,成功家园北门东120米,"121.725555,31.048896","121.721199,31.051019",9943,121.721199,31.051019,hotel
B0JR3LD62N,宣桥枫亭的民宿,100200,人民西路与埭安路交叉口西320米,"121.718774,31.048484","121.714424,31.050614",9943,121.714424,31.050614,hotel
B0LB7CF62T,如家酒店·neo(上海顾村公园潘广路地铁站店),100100,顾村镇潘广路1735号(潘广路地铁站2号口步行490米),"121.360172,31.362767","121.355550,31.364585",5661,121.35555,31.364585,hotel
B0J2L7Y7LG,青季酒店MINI(上海宝山天街刘行地铁站店),100100,顾村镇陆翔路1018弄7号330室,"121.360002,31.361256","121.355380,31.363075",5661,121.35538,31.363075,hotel
B0KK7SDNWY,拾光民宿(龙湖天街店),100200,陆翔路与潘广路交叉口东140米,"121.359941,31.361716","121.355319,31.363534",5661,121.355319,31.363534,hotel
B0I64N0B1G,上海Tina吴公寓(陆翔路店),100200,陆翔路1018弄宝山龙湖北城天街售楼处,"121.359647,31.362091","121.355026,31.363910",5661,121.355026,31.36391,hotel
B0M6TR62Z0,馨家园北欧风民宿,100200,潘广路与韶山路交叉口西北180米,"121.363175,31.364825","121.358547,31.366638",5661,121.358547,31.366638,hotel
B0MBFS3QO7,上海提萝投影民宿(顾村公园店),100200,潘广路与丹霞山路交叉口南160米,"121.361225,31.361175","121.356601,31.362992",5661,121.356601,31.362992,hotel
B0LUXOOJG4,莱许智美家小清新民宿(顾村公园二店),100200,丹霞山路与鄱阳湖路交叉口东南100米,"121.361175,31.364425","121.356551,31.366241",5661,121.356551,31.366241,hotel
B0M6TR6CDN,桃子姐姐的民宿(顾村公园店),100200,丹霞山路与潘广路交叉口南140米,"121.361475,31.361325","121.356851,31.363141",5661,121.356851,31.363141,hotel
B0LK3H03VO,上海北城招商花园城X(建设中),060100,顾村镇新顾城社区陆陈路509号(地铁7号线潘广路站3号口),"121.354146,31.364279","121.349535,31.366106",5661,121.349535,31.366106,mall
B0LGOZ6NE7,上海浦东温德姆花园酒店,100100,惠南镇沪南公路9825号近大川公路,"121.734828,31.041523","121.730467,31.043643",10070,121.730467,31.043643,hotel
B00156GXOF,豪泰酒店(上海浦东机场野生动物园店),100105,惠南镇大川公路2728号(近沪南公路),"121.735762,31.040984","121.731401,31.043104",10070,121.731401,31.043104,hotel
B0LGOHT3TC,上海浦东温德姆花园酒店大堂,100100,惠南镇沪南公路9825号近大川公路,"121.735018,31.04124","121.730657,31.043360",10070,121.730657,31.04336,hotel
B0MG9CQLS0,拾光公寓,100200,项埭村821号,"121.72837,31.048946","121.724012,31.051066",10070,121.724012,31.051066,hotel
B0IUXUGGAJ,格林豪泰智选酒店(上海惠南地铁站南园路店),100100,惠南镇南园路45号(衡山度假村东门),"121.735717,31.040922","121.731356,31.043042",10070,121.731356,31.043042,hotel
B0MBU5MD17,项埭村出租屋,100200,人民西路辅路与宣盛路交叉口东200米,"121.730441,31.048976","121.726082,31.051095",10070,121.726082,31.051095,hotel
B0FFFGXJ8O,格林豪泰智选酒店(上海虹桥机场国家会展中心店),100105,上海嘉定榆中路101号,"121.325596,31.25497","121.321057,31.256891",5268,121.321057,31.256891,hotel
B00156E4QB,上海闽鸿宾馆,100100|100200,江桥镇临洮路263号,"121.32929,31.255686","121.324742,31.257600",5268,121.324742,31.2576,hotel
B0FFGBZF47,芒果青年社区,100201|060000,靖远路1200号万辉玛特3层,"121.326403,31.254761","121.321862,31.256680",5268,121.321862,31.25668,hotel
B0L3YRJXZA,登巴mini客栈(临洮路店),100100,临洮路283号,"121.329367,31.256248","121.324819,31.258161",5268,121.324819,31.258161,hotel
B0FFFEUGFH,彩虹小居旅馆(上海嘉定江桥榆中路店),100200,榆中路140-142号,"121.326214,31.255815","121.321673,31.257734",5268,121.321673,31.257734,hotel
B0MAYO47R7,沪上暖居青年旅舍,100201,临夏路与张掖路交叉口西北340米,"121.332816,31.259495","121.328260,31.261400",5268,121.32826,31.2614,hotel
B0I11A4VE6,荣荟酒店(上海虹桥国展中心店),100200,靖远路915号,"121.327693,31.254051","121.323149,31.255968",5268,121.323149,31.255968,hotel
B0FFGY60KG,翔威公寓(临洮路店),100200,临洮路349号,"121.329695,31.257882","121.325146,31.259794",5268,121.325146,31.259794,hotel
B0JB15AGHB,格林豪泰上海江桥靖远路榆中路店大堂,100100,榆中路101号格林豪泰智选酒店,"121.325557,31.254897","121.321018,31.256818",5268,121.321018,31.256818,hotel
B00156OB17,靖远宾馆,100100,江桥镇靖远路1099弄208号(近大润发超市),"121.324217,31.254454","121.319681,31.256378",5268,121.319681,31.256378,hotel
B0FFHDGQM0,乐乎有朋天悦公寓,100200,榆中路与靖远路交叉口东北80米,"121.326426,31.255107","121.321885,31.257026",5268,121.321885,31.257026,hotel
B0GKUSGS2S,迎华公寓,100201,临夏路789号,"121.328524,31.257035","121.323978,31.258949",5268,121.323978,31.258949,hotel
B0FFGEU1MQ,临夏青年公寓,120000|100201,临夏路796号,"121.328906,31.25718","121.324359,31.259094",5268,121.324359,31.259094,other
B0G06XP8A1,芒果青年公寓(靖远路),100100,靖远路与榆中路交叉口东60米,"121.326424,31.25483","121.321883,31.256749",5268,121.321883,31.256749,hotel
B0I2YAQHD6,荣荟宾馆大堂,100200,靖远路915号荣荟酒店(上海虹桥国展中心店),"121.327782,31.254008","121.323238,31.255925",5268,121.323238,31.255925,hotel
B0FFHDG9RD,熠顺公寓,100200,汇丰沁苑北区西南1门旁,"121.329255,31.256873","121.324707,31.258786",5268,121.324707,31.258786,hotel
B0KKFA23HO,耀日星河青年旅社,100201,临洮路与临夏路交叉口东北360米,"121.332525,31.259125","121.327969,31.261031",5268,121.327969,31.261031,hotel
B0FFG95ER0,臻详购物广场,060101,榆中路与靖远路交叉口东北40米,"121.32611,31.2548","121.321569,31.256720",5268,121.321569,31.25672,mall
B0LKNLRI5W,韦皓公寓,100200,临夏路与张掖路交叉口西280米,"121.333325,31.259125","121.328768,31.261029",5268,121.328768,31.261029,hotel
B0LDHLH9XN,寓见芒果,100200,榆中路与靖远路交叉口东北40米,"121.326025,31.254825","121.321485,31.256745",5268,121.321485,31.256745,hotel
B0MBXUZ7Q8,电竞旅馆,100200,高潮水族批发市场北门西南60米,"121.326175,31.255675","121.321634,31.257594",5268,121.321634,31.257594,hotel
B0J0SY4A03,七仙浴场休闲客房,100200,榆中路与靖远路交叉口北80米,"121.32601,31.255336","121.321470,31.257256",5268,121.32147,31.257256,hotel
B0HR5K9D16,维也纳国际酒店(上海康桥地铁站秀浦路店),100105|050100,康桥镇秀浦路833号,"121.572017,31.127499","121.567802,31.129739",8174,121.567802,31.129739,hotel
B0FFG85L1R,全季酒店(上海康桥秀浦路店),100105,秀浦路886号,"121.573258,31.127033","121.569045,31.129274",8174,121.569045,31.129274,hotel
B0FFG85RLF,和颐酒店(上海秀浦路康桥地铁站店),100105,秀浦路886号,"121.573216,31.127029","121.569003,31.129270",8174,121.569003,31.12927,hotel
B0FFFA0LZ4,格林豪泰酒店(上海周浦秀浦路康桥地铁站店),100105,秀浦路799号,"121.570821,31.127309","121.566604,31.129547",8174,121.566604,31.129547,hotel
B0FFLP3REK,富灵酒店(上海周浦万达广场康桥地铁站店),100100,周浦镇秀浦路888号,"121.573814,31.127111","121.569602,31.129353",8174,121.569602,31.129353,hotel
B0JK7UR89X,迪诗曼酒店(上海秀浦路康桥地铁站店),100100,周浦镇秀浦路797号,"121.570601,31.1273","121.566384,31.129538",8174,121.566384,31.129538,hotel
B0LBLLI5VI,贝壳酒店(上海市浦东新区迪士尼康桥地铁站店),100100,康桥镇康沈路1011号,"121.575297,31.128418","121.571087,31.130661",8174,121.571087,31.130661,hotel
B0H0S53AT3,维也纳国际酒店上海新国际博览中心康桥地铁站店大堂,100105,康桥镇秀浦路833号维也纳国际酒店(上海康桥地铁站秀浦路店),"121.572094,31.127509","121.567879,31.129749",8174,121.567879,31.129749,hotel
B0FFGV4RGL,擅达广场,060102,周浦镇秀浦路886号,"121.57311,31.126996","121.568897,31.129237",8174,121.568897,31.129237,mall
B0IGHZD00L,格林豪泰酒店上海周浦秀浦路康桥地铁站店大堂,100100,秀浦路799号格林豪泰酒店(上海周浦秀浦路康桥地铁站店),"121.570825,31.127328","121.566608,31.129566",8174,121.566608,31.129566,hotel
B00156ZHVZ,上海瑞峰旅馆,100200,康沈路1512号,"121.575231,31.119791","121.571021,31.122038",8174,121.571021,31.122038,hotel
B0IG5RMJIU,康天公寓(周浦康桥店),120302|100200,康沈路1011号,"121.574848,31.128452","121.570637,31.130694",8174,121.570637,31.130694,other
B00156O8ZP,上海江晟客房,100200,周浦镇康沈路1500号,"121.57519,31.120179","121.570980,31.122426",8174,121.57098,31.122426,hotel
B0K15D257H,迪诗曼酒店上海秀浦路康桥地铁站店大堂,100100,秀浦路797号迪诗曼酒店(上海秀浦路康桥地铁站店),"121.570564,31.127263","121.566347,31.129501",8174,121.566347,31.129501,hotel
B0FFGFJY8J,富灵公寓,100200,富灵时代广场西北门旁,"121.57405,31.127026","121.569838,31.129268",8174,121.569838,31.129268,hotel
B0FFMHVNSY,家功宾馆,100100,秀浦路与康沈路交叉口东60米,"121.575174,31.127391","121.570964,31.129634",8174,121.570964,31.129634,hotel
B0L0T5AMEY,上海久逸客房,100200,公元三村西北门东60米,"121.573386,31.122526","121.569173,31.124770",8174,121.569173,31.12477,hotel
B0JKUAINCF,迎丰公寓,100200,康沈公路与康沈路1044弄交叉口西北80米,"121.574239,31.128792","121.570027,31.131034",8174,121.570027,31.131034,hotel
B0MANUQ00A,上海国际旅游度假区店,100105,维也纳国际酒店秀浦路万达广场店东南门西50米,"121.572322,31.12752","121.568107,31.129760",8174,121.568107,31.12976,hotel
B0L1SRQWNE,康天精品酒店A栋,100100,康沈公路与康沈路1044弄交叉口东80米,"121.575325,31.128375","121.571115,31.130618",8174,121.571115,31.130618,hotel
B0L3MCLBVZ,YitelHotel,100100,秀浦路与康沈公路交叉口西140米,"121.573225,31.127025","121.569012,31.129266",8174,121.569012,31.129266,hotel
B0L0BHUP03,沁家优住,100200,山阳镇中兴村1060号,"121.330585,30.764204","121.326076,30.766387",5086,121.326076,30.766387,hotel
B0H6X5VO6L,龙湖上海云廊天街,120201|060100,新桥镇千帆路288号,"121.325192,31.08977","121.320668,31.091775",5122,121.320668,31.091775,other
B00156F3GX,戴家浜生活广场,060101,松汇中路1099号,"121.219662,31.00329","121.215240,31.005419",3843,121.21524,31.005419,mall
B0FFFX3PIR,上海蓝松旅馆,100200,岳阳街道中山中路543弄4号302室,"121.223421,31.006426","121.219002,31.008557",3843,121.219002,31.008557,hotel
B0IR77AB6T,悦客来公寓(中山中路分店),100200,中山中路710弄3号二楼,"121.223144,31.006811","121.218725,31.008941",3843,121.218725,31.008941,hotel
B001576KL9,于氏旅店,100200,永丰路2号内,"121.216753,31.006802","121.212327,31.008925",3843,121.212327,31.008925,hotel
B0FFGOH2KW,8090主题公寓(西林南路),100200,中山中路520弄14号华亭老街,"121.22292,31.005851","121.218501,31.007981",3843,121.218501,31.007981,hotel
B0LG41EV67,悦莱公寓,100200,松汇中路1099号戴家浜生活广场,"121.219225,31.003475","121.214802,31.005603",3843,121.214802,31.005603,hotel
B0MBFS4VVD,小时代·芭拉拉花园,100100,明中路与月台路交叉口东440米,"121.332864,31.073802","121.328324,31.075802",5248,121.328324,31.075802,hotel
B0FFIJ2EKK,维也纳国际酒店(上海虹桥国展中心万达店),100104|050100,江桥镇爱特路190号(距虹桥机场火车站5公里),"121.314056,31.23324","121.309544,31.235192",5138,121.309544,31.235192,hotel
B0KK7ZEQ5L,金仑酒店(上海虹桥火车站国家会展中心店),100100,华江公路1260弄50号,"121.324215,31.227596","121.319681,31.229532",5138,121.319681,31.229532,hotel
B0FFFJNFKN,锦江之星品尚(上海虹桥机场店),100105,华江路1028号,"121.324441,31.231936","121.319906,31.233869",5138,121.319906,31.233869,hotel
B0FFIPWH8Q,般佈酒店(上海虹桥机场国展中心店),100100,华江路1028号(江桥万达广场附近),"121.324574,31.231459","121.320039,31.233392",5138,121.320039,31.233392,hotel
B0ID7CKLCX,维也纳酒店虹桥国展中心万达店大堂,100105,江桥镇爱特路190号维也纳国际酒店(上海虹桥国展中心万达店),"121.314075,31.233223","121.309563,31.235175",5138,121.309563,31.235175,hotel
B0KK7ZI5EV,金元酒店(虹桥火车站国家会展中心店),100100,华江公路1260弄52号,"121.324215,31.227596","121.319681,31.229532",5138,121.319681,31.229532,hotel
B0JGGYM0QA,晶彩小苑民宿(虹桥机场店),100200,万达广场4号写字楼315室,"121.318175,31.233075","121.313654,31.235020",5138,121.313654,31.23502,hotel
B0LDSR2YB3,亦垒青年公寓,100200|120000,南华街与北王路交叉口北200米,"121.314125,31.226075","121.309614,31.228031",5138,121.309614,31.228031,hotel
B0FFF040Y1,绿地金御广场,060101|060102,新南路959号,"121.340082,31.088214","121.335524,31.090192",5376,121.335524,31.090192,mall
B0MBNCT6SU,上海松江格兰云天大酒店,100102,新桥明兴路628号,"121.340167,31.087419","121.335609,31.089397",5376,121.335609,31.089397,hotel
B001557V1D,松新宾馆(中锦商业广场对面),100100,新南路715弄17号1层、3层,"121.345,31.089487","121.340431,31.091455",5376,121.340431,31.091455,hotel
B0LUTD3K4S,松索星公寓,100100,新桥镇新南路989弄8号325室,"121.34017,31.08775","121.335612,31.089728",5376,121.335612,31.089728,hotel
B0KBF5T8F5,矮脚象宠物(绿地金御广场店),060502|100100,新南路959号绿地金御广场4F层,"121.34024,31.088041","121.335682,31.090019",5376,121.335682,31.090019,other
B0J3AHN6FR,爱芙洛狄·婚礼艺术中心(绿地金御广场店),100100,新桥镇新南路989弄8号四楼407室,"121.340531,31.088241","121.335972,31.090218",5376,121.335972,31.090218,hotel
B0J2RPDE5T,新南路壹号公寓,100200,场西居委会退役军人服务站东侧120米,"121.341425,31.083825","121.336865,31.085803",5376,121.336865,31.085803,hotel
B0FFJD5FLT,上海新国际博览中心磁悬浮站亚朵酒店,100100,白杨路608-2号楼(龙阳路地铁站17号口步行70米),"121.555724,31.200169","121.551472,31.202347",8055,121.551472,31.202347,hotel
B0IRHOS8JE,汉庭酒店(上海新国际博览中心芳华路店),100100,芳华路苗桐路13号,"121.564938,31.196355","121.560705,31.198550",8055,121.560705,31.19855,hotel
B00154LE48,培花商场,060102|060400,白杨路芳草路377号(芳芯路地铁站1号口步行280米),"121.558427,31.193952","121.554181,31.196138",8055,121.554181,31.196138,mall
B0FFGASDIQ,上海宾华旅馆(龙阳路地铁站店),100200|100100,芳华路371弄21号(芳芯路地铁站4号口步行470米),"121.558076,31.196234","121.553829,31.198418",8055,121.553829,31.198418,hotel
B0L2MLZCN3,汉庭酒店(上海新国际博览中心芳华路店)-大堂,100105,苗桐路与芳华路交叉口东南40米,"121.564911,31.196373","121.560678,31.198568",8055,121.560678,31.198568,hotel
B0LDPR306A,贤诺公寓,100200,培花路与芳草路交叉口西北60米,"121.556675,31.193775","121.552425,31.195958",8055,121.552425,31.195958,hotel
B0MGYR6Z34,上海厚浪电峰酒店管理有限责任公司,100100|170200,芳草路与培花路交叉口西北40米,"121.556675,31.193575","121.552425,31.195758",8055,121.552425,31.195758,hotel
B0L0Z6E5S5,汉唐酒店,100100,苗桐路与芳华路交叉口东南40米,"121.564932,31.19635","121.560699,31.198545",8055,121.560699,31.198545,hotel
B00155QO7M,上海宝蓉宾馆,100100,扶港路388弄2-3号(近西闸公路)巧购购物广场(西渡店),"121.441799,30.991202","121.437210,30.993201",6508,121.43721,30.993201,hotel
B0FFF2KZMI,上海枫山快捷宾馆,100200,南鸿路388弄61号,"121.440922,30.991062","121.436331,30.993060",6508,121.436331,30.99306,hotel
B00153EB9D,上海银星皇冠假日酒店,100102|050000,番禺路400号,"121.429638,31.203028","121.425009,31.204893",6405,121.425009,31.204893,hotel
B0FFHOL5X2,宿适轻奢酒店(上海交通大学延安西路地铁站店),100105,定西路711号,"121.423875,31.207142","121.419238,31.208998",6405,121.419238,31.208998,hotel
B0L145113L,汉庭上海交通大学定西路酒店,100105,定西路738号,"121.424137,31.207571","121.419500,31.209428",6405,121.4195,31.209428,hotel
B0LUACI3JJ,上海上影CHAO酒店,100100,新华路178号,"121.429106,31.202691","121.424476,31.204555",6405,121.424476,31.204555,hotel
B0FFI9SNNK,弗思特逸住酒店(上海上生新所延安西路地铁站店),100100,定西路657号(近上海交通大学),"121.423754,31.206345","121.419117,31.208202",6405,121.419117,31.208202,hotel
B0IBCKH6IH,安和花园酒店,100100,新华路179号,"121.428823,31.202185","121.424193,31.204049",6405,121.424193,31.204049,hotel
B0LUTC3L4T,THE GARDEN F艾菲花园酒店(上海徐家汇交通大学地铁站店),100100,新华路与香花桥路交叉口南200米,"121.424733,31.201889","121.420098,31.203749",6405,121.420098,31.203749,hotel
B0FFGZHWKR,安徽沪办招待所,100200,新华路185弄5号,"121.428535,31.202224","121.423905,31.204088",6405,121.423905,31.204088,hotel
B0KAFZHX3M,TRI PLACE三角地,060102,新华路365弄6号楼101-102室,"121.424857,31.202203","121.420222,31.204063",6405,121.420222,31.204063,mall
B0JK6BX3QJ,黄建国大饭店(金地新华道店),100100,番禺路222弄55号金地新华道一楼F113,"121.426925,31.207275","121.422292,31.209135",6405,121.422292,31.209135,hotel
B0FFFGH9OS,上海定龙旅馆,100200,凯旋路1362-1临(近虹桥路地铁站),"121.420004,31.201048","121.415364,31.202904",6405,121.415364,31.202904,hotel
B0GK5P8MSX,上海叮当叮咚公寓(定西路分店),100200|100100,番禺路222弄-道路(番禺大厦),"121.427557,31.205868","121.422925,31.207729",6405,121.422925,31.207729,hotel
B0LKUCZC4W,上海银星皇冠假日酒店-大堂,100100,番禺路与法华镇路交叉口西南40米,"121.430075,31.203075","121.425447,31.204940",6405,121.425447,31.20494,hotel
B0JR9GE25Y,繁花民宿(上海胸科医院店),100105,长峰浦江,"121.422675,31.201075","121.418037,31.202933",6405,121.418037,31.202933,hotel
B0L31LVO0B,Shadow4679的民宿(徐家汇地区店),100200,新华路与番禺路交叉口西240米,"121.427575,31.201925","121.422943,31.203788",6405,121.422943,31.203788,hotel
B0K0TNOGJV,大李李的民宿,100200,番禺路222弄与安西路交叉口东南140米,"121.427472,31.205998","121.422840,31.207859",6405,121.42284,31.207859,hotel
B0M62NU0LS,逸住酒店,100100,安西路与番禺路222弄交叉口东北80米,"121.426925,31.207475","121.422292,31.209334",6405,121.422292,31.209334,hotel
B0K3M7T3W0,范先生的民宿徐家汇地区二店,100200,安顺路与定西路交叉口南140米,"121.422261,31.20017","121.417623,31.202028",6405,121.417623,31.202028,hotel
B0LACRJKEC,简爱民宿(徐家汇一店),100200,番禺路222弄与安西路交叉口东南120米,"121.427625,31.206275","121.422993,31.208136",6405,121.422993,31.208136,hotel
B0FFH8HHXV,维也纳酒店(上海周浦地铁站小上海步行街店),100100,周市路378号,"121.58115,31.116115","121.576948,31.118370",8300,121.576948,31.11837,hotel
B0FFF9YUVW,全季酒店(上海周浦万达广场店),100105,年家浜路329号,"121.578398,31.114966","121.574193,31.117219",8300,121.574193,31.117219,hotel
B0G0CHX1BO,Zsmart智尚酒店(上海周浦地铁站店),100100,周浦镇年家浜路338弄1号,"121.578466,31.1155","121.574261,31.117753",8300,121.574261,31.117753,hotel
B0FFFABHS9,汉庭酒店(上海周浦小上海步行街店),100105,年家浜路338弄53号,"121.579153,31.116063","121.574948,31.118316",8300,121.574948,31.118316,hotel
B0FFG5CBUJ,M家社区酒店(上海周浦小上海步行街店),100100,周浦镇周市路382号,"121.580919,31.116531","121.576716,31.118785",8300,121.576716,31.118785,hotel
B0FFHOH62B,上海乐驿酒店,100100,周浦镇周市路382号,"121.580731,31.116989","121.576528,31.119243",8300,121.576528,31.119243,hotel
B0HGSD48NK,壹家精选酒店(周浦小上海步行街店),100200,年家浜路338弄87号二楼,"121.579147,31.115537","121.574942,31.117790",8300,121.574942,31.11779,hotel
B0FFI8BLA0,YuKi勇丞酒店(上海周浦万达广场步行街店),100100,周浦镇康沈路1907号,"121.580053,31.11113","121.575850,31.113386",8300,121.57585,31.113386,hotel
B00155QEPI,常来宾馆(上海万达广场周浦店),100100,康沈公路1765号,"121.578595,31.114278","121.574390,31.116532",8300,121.57439,31.116532,hotel
B0FFF29X6W,小上海精品酒店公寓,100100,周浦镇步行街(中大街101-111号)3楼,"121.57865,31.118892","121.574445,31.121143",8300,121.574445,31.121143,hotel
B0015731WF,星朴99时尚旅店(上海周浦小上海步行街店),100200,周浦镇中大街99号3层,"121.578364,31.117059","121.574158,31.119311",8300,121.574158,31.119311,hotel
B00156E3MY,易佰连锁旅店(周浦地铁站小上海步行街店),100200,年家浜路297号,"121.579249,31.115242","121.575045,31.117496",8300,121.575045,31.117496,hotel
B00156O9AX,上海意朋旅馆,100100,年家浜路336-10号4楼,"121.579385,31.115448","121.575181,31.117702",8300,121.575181,31.117702,hotel
B00156OB4A,上海舒宁旅店,100200,周浦镇康沈路1611弄50号2楼,"121.57789,31.116599","121.573684,31.118851",8300,121.573684,31.118851,hotel
B0FFHC60SA,易佰良品酒店(周浦小上海新城店),100200|060000,周浦镇周市路311号,"121.579365,31.118804","121.575160,31.121056",8300,121.57516,31.121056,hotel
B0HRLGXWXB,东八客房(上海年家浜路店),100200,上海浦东新区东八灶112号,"121.582052,31.115472","121.577851,31.117728",8300,121.577851,31.117728,hotel
B00156ZHXV,上海新天地客房,100200,康沈路1888号,"121.579416,31.111432","121.575212,31.113688",8300,121.575212,31.113688,hotel
B0FFINHU9P,东八客房(上海川周公路店),100200,川周公路4375号,"121.579213,31.11936","121.575008,31.121611",8300,121.575008,31.121611,hotel
B00156ZHYD,上海荣博旅馆,100200,康沈公路1883弄8-10号,"121.580081,31.111827","121.575878,31.114083",8300,121.575878,31.114083,hotel
B0K1ULJQB3,内当家公寓(周浦小上海步行街),100200,周浦镇小上海步行街中大街85号内当家公寓,"121.578522,31.116935","121.574317,31.119187",8300,121.574317,31.119187,hotel
B00156E1AS,益庭商务宾馆,100100,上海浦东新区周浦镇康沈路1765号5层,"121.578581,31.114371","121.574376,31.116624",8300,121.574376,31.116624,hotel
B0MGLCO0L2,翰泊庭酒店公寓,100100,中大东街37号2层仙果缘果品批发行旁边,"121.580619,31.117318","121.576416,31.119572",8300,121.576416,31.119572,hotel
B0FFG7VASE,上海慧晶国际酒店式公寓,100200,周浦镇周市路416号慧晶国际501室,"121.580777,31.117811","121.576574,31.120064",8300,121.576574,31.120064,hotel
B0L6771PPV,洲悦大酒店,100100,周市路416号,"121.580525,31.117725","121.576322,31.119978",8300,121.576322,31.119978,hotel
B0K3HA265J,丽汀公寓(周浦店),100200,韵浦路194号,"121.578861,31.111475","121.574656,31.113730",8300,121.574656,31.11373,hotel
B0L0R785GJ,嘉家公寓,100200,年家浜路338弄43号4楼,"121.578769,31.116094","121.574564,31.118347",8300,121.574564,31.118347,hotel
B0FFKZSI34,零点公寓式酒店(小上海旅游文化城时尚休闲街店),100100,康沈公路1611弄1号小上海旅游文化城时尚休闲街,"121.578781,31.116111","121.574576,31.118364",8300,121.574576,31.118364,hotel
B0L12ZSURN,新世纪超市(周市路店),060102,君领国际,"121.579975,31.117725","121.575771,31.119978",8300,121.575771,31.119978,mall
B0FFHCYLV4,米舍公寓(周市路店),100200,周市路79号,"121.58199,31.110946","121.577789,31.113204",8300,121.577789,31.113204,hotel
B0KK2CI0AR,局外人电竞民宿酒店(周浦小上海步行街店),100100,康沈路与年家浜路交叉口东120米,"121.579075,31.115125","121.574870,31.117378",8300,121.57487,31.117378,hotel
B0JDPHKYJ8,淼客公寓小上海步行街店,100200,周市路311号,"121.579338,31.118898","121.575133,31.121150",8300,121.575133,31.12115,hotel
B0FFIGJ75T,隆庭酒店(上海康沈路店),100200|100100,康沈路1611弄72号,"121.578379,31.116728","121.574173,31.118980",8300,121.574173,31.11898,hotel
B0IGXMJW5M,悦棠公寓,100200,小上海休闲广场东2门旁,"121.578695,31.118517","121.574490,31.120768",8300,121.57449,31.120768,hotel
B0L07Z16DI,秦巢公寓(小上海休闲广场店),100200,关岳西路151弄104号,"121.578681,31.118583","121.574476,31.120834",8300,121.574476,31.120834,hotel
B0JK56DXS2,创欣公寓,100200,康沈路与韵浦路交叉口东北60米,"121.580163,31.111985","121.575960,31.114241",8300,121.57596,31.114241,hotel
B0LD1DL0MK,爱惜屋民宿,100200,周浦镇年家滨路322号,"121.579832,31.115575","121.575628,31.117829",8300,121.575628,31.117829,hotel
B0KKFAGZ50,拾光精品民宿(莎海公寓店),100200,周东路与关岳路交叉口东南260米,"121.587025,31.117575","121.582828,31.119832",8300,121.582828,31.119832,hotel
B0MGJGATVK,上海浦峻澜庭酒店式公寓,100100,中大东街与文康路交叉口西40米,"121.581575,31.117825","121.577373,31.120079",8300,121.577373,31.120079,hotel
B0L3R9O7QG,翔涛公寓B栋,100200,关岳西路151弄1-196号小上海休闲广场,"121.578275,31.118575","121.574069,31.120826",8300,121.574069,31.120826,hotel
B0I1LPH706,君发旅馆,100200,周东路与关岳路交叉口东南160米,"121.586094,31.118235","121.581896,31.120492",8300,121.581896,31.120492,hotel
B0L33RBWRV,全宇酒店,100100,年家浜路与康沈路交叉口东80米,"121.578546,31.115004","121.574341,31.117257",8300,121.574341,31.117257,hotel
B0L1RM9S90,沪尚精品民宿,100200,年家浜东路与周东路交叉口西200米,"121.585213,31.1138","121.581015,31.116058",8300,121.581015,31.116058,hotel
B0KK0M2N53,上海师捷酒店管理有限公司,100100|170200,韵浦路与康沈路交叉口西40米,"121.579191,31.111466","121.574987,31.113722",8300,121.574987,31.113722,hotel
B0IUV7RXAD,维也纳酒店(上海宝山华和路店),100100,华和路333号,"121.401548,31.290713","121.396891,31.292522",6161,121.396891,31.292522,hotel
B0FFFVDMD5,上海丽甫主题酒店(宝山真大路店),100103,真大路382号,"121.400864,31.291499","121.396207,31.293308",6161,121.396207,31.293308,hotel
B00157I370,鸿祥时尚宾馆(上海大宁国际古浪路地铁站店),100100,真大路341号,"121.400879,31.289647","121.396222,31.291457",6161,121.396222,31.291457,hotel
B0FFMBWC1R,轻住·三义优选酒店(上海大华中环一号店),100100|100200,真大路372号二层,"121.400872,31.290513","121.396215,31.292322",6161,121.396215,31.292322,hotel
B0IDX5VKNL,上海丽甫主题酒店宝山真大路店大堂,100103,真大路与华和路交叉口西北60米,"121.400905,31.291536","121.396248,31.293345",6161,121.396248,31.293345,hotel
B0J6G5MJAI,V家酒店公寓,100100,真朋路与华和路交叉口北80米,"121.397234,31.291889","121.392578,31.293698",6161,121.392578,31.293698,hotel
B0I3F7SZ1L,汉森融寓,100200,华和路与真朋路交叉口东180米,"121.398975,31.291025","121.394319,31.292834",6161,121.394319,31.292834,hotel
B0L15AZCRQ,V家·自如寓,100200,真朋路65号,"121.397327,31.291778","121.392671,31.293587",6161,121.392671,31.293587,hotel
B0L2R5MWG0,城璟租住,100200,环镇南路与真朋路交叉口东北240米,"121.399525,31.295975","121.394868,31.297782",6161,121.394868,31.297782,hotel
B0L1UP2V8Y,青舍,100200,环镇南路与真朋路交叉口东北240米,"121.399525,31.295975","121.394868,31.297782",6161,121.394868,31.297782,hotel
B0L0MN8EJ9,砺来公寓,100200,真朋路与环镇南路交叉口东南200米,"121.398725,31.292725","121.394068,31.294534",6161,121.394068,31.294534,hotel
B0L3Z9111S,礼寓,100200,环镇南路与真朋路交叉口东北240米,"121.399525,31.295975","121.394868,31.297782",6161,121.394868,31.297782,hotel
B0L2O9WIK6,丽南酒店,100100,真大路与华和路交叉口北60米,"121.401017,31.291674","121.396360,31.293483",6161,121.39636,31.293483,hotel
B0FFFHASRP,贝尚坊,060101,沪亭北路350弄,"121.317651,31.145719","121.313139,31.147708",5129,121.313139,31.147708,mall
B0HDP5K408,如家精选酒店(上海九亭中心店),100100,沪亭北路620号(沪亭北路与涞寅路交叉口),"121.315757,31.148382","121.311249,31.150373",5129,121.311249,31.150373,hotel
B0FFFVBEBQ,海友酒店(上海虹桥枢纽九亭店),100105,松江区沪亭北路598号,"121.316039,31.147771","121.311530,31.149762",5129,121.31153,31.149762,hotel
B00156Z1CG,贝尚湾1号,100100,贝尚湾西北门西380米,"121.317027,31.146735","121.312516,31.148725",5129,121.312516,31.148725,hotel
B0I1L5IUKE,添福小筑,100200,涞坊路333弄111号,"121.320106,31.152942","121.315588,31.154923",5129,121.315588,31.154923,hotel
B0FFG8FU0R,商务酒店公寓,100100,九里亭街道涞寅路505弄1号407室,"121.317078,31.146796","121.312567,31.148786",5129,121.312567,31.148786,hotel
B0M67AX131,贝尚湾小公寓,100200,涞寅路与沪亭北路交叉口东60米,"121.317078,31.146796","121.312567,31.148786",5129,121.312567,31.148786,hotel
B0J2GUAF94,潮漫酒店(上海莘庄店),100100,莘松路1098号,"121.354305,31.099269","121.349717,31.101216",5505,121.349717,31.101216,hotel
B0J6SU2ITW,蜜蜂公寓,100200,莘松路1028号与春九路交叉口东北200米,"121.355687,31.099597","121.351096,31.101541",5505,121.351096,31.101541,hotel
B0G0TPCQYY,THE hood开新里,060102,御桥路1949号(御桥地铁站8号口步行50米),"121.571907,31.159084","121.567689,31.161307",8178,121.567689,31.161307,mall
B0FFGBBVJ7,地杰乐生活广场,060102,御青路311号(御桥地铁站3号口步行120米),"121.572565,31.157042","121.568348,31.159267",8178,121.568348,31.159267,mall
B0FFG80VFA,如家快捷酒店(上海御桥地铁站店),100105,御青路315-317号(靠近御桥路、康桥路之间),"121.572441,31.157055","121.568224,31.159280",8178,121.568224,31.15928,hotel
B0FFLJE49K,上海漫克酒店(复地活力城御桥路地铁站店),100100,御青路311号地杰乐生活广场F1层,"121.572536,31.156762","121.568319,31.158987",8178,121.568319,31.158987,hotel
B0FFJDFZOH,匡合商务宾馆(上海复地活力城御桥地铁站店),100100,御青路333号(御桥地铁站3号口步行190米),"121.572291,31.156342","121.568074,31.158567",8178,121.568074,31.158567,hotel
B0FFGEG9GP,上海鸿阳酒店式公寓(御桥路店),100200,御桥路2066弄19号,"121.575915,31.158023","121.571703,31.160251",8178,121.571703,31.160251,hotel
B0KA9RNEUQ,晋山酒店(地杰乐生活广场店),100100,御青路311号地杰乐生活广场,"121.572456,31.157041","121.568239,31.159266",8178,121.568239,31.159266,hotel
B0HKDHYDIZ,满园居中小企业孵化中心,100200|070000,塘浦路1088号,"121.473936,31.106538","121.469424,31.108544",7029,121.469424,31.108544,hotel
B0LRKMGUHE,璟浦公寓,100200|120302,塘浦路与芦恒路交叉口东南100米,"121.473925,31.106825","121.469413,31.108831",7029,121.469413,31.108831,hotel
B0LKGZ1GXJ,上海悠墅度假轰趴别墅(虹梅南路站店),100100,虹梅南路2323弄65号,"121.43123,31.099498","121.426612,31.101419",6393,121.426612,31.101419,hotel
B0HKKZHSGB,如家精选酒店(上海秀沿路康桥地铁站店),100100,康沈路515号,"121.572608,31.137417","121.568393,31.139652",8175,121.568393,31.139652,hotel
B0L2J775BY,上海浦东康桥地铁站美仑酒店,100103,沪南公路3001号(康桥地铁站2号口旁),"121.567768,31.13364","121.563546,31.135871",8175,121.563546,31.135871,hotel
B0FFFDUVL6,上海金开客房(康桥地铁站店),100100,康桥镇秀沿路877号农业银行二楼,"121.571836,31.134942","121.567620,31.137178",8175,121.56762,31.137178,hotel
B0M6TD3NSR,Homeinnplus(康沈公路店),100100,康沈公路与军民公路交叉口北60米,"121.572533,31.137302","121.568318,31.139537",8175,121.568318,31.139537,hotel
B0LR6MFC3V,徐行天地,060100,徐行镇启宁路688号(启宁路与新建一路路口),"121.278991,31.413871","121.274528,31.415810",4650,121.274528,31.41581,mall
B0LA59TUOC,兔喜驿站,100200,澄浏公路与新建一路交叉口南140米,"121.273525,31.413225","121.269069,31.415170",4650,121.269069,31.41517,hotel
B0MUDAII50,佳纷天地(装修中),060102,启宁路与树屏东路交叉口西北20米,"121.278182,31.411823","121.273720,31.413764",4650,121.27372,31.413764,mall
B0HKLLUMRV,7天酒店(上海大学店),100105,大场镇鄂尔多斯路800号401-405室,"121.393531,31.307098","121.388875,31.308902",6035,121.388875,31.308902,hotel
B0LK19ETG0,芸悦拾光,100200,鄂尔多斯路800号501室七天酒店大厅或地下车库电梯上5层,"121.39361,31.30698","121.388954,31.308784",6035,121.388954,31.308784,hotel
B00156F5N2,鹤森生活广场(徐泾店),060101|060102,徐泾镇明珠路258号1幢2层,"121.27099,31.169604","121.266557,31.171648",4496,121.266557,31.171648,mall
B00155N1NY,上海虹桥西郊假日酒店,100103,沪青平公路2000号,"121.270938,31.16607","121.266506,31.168116",4496,121.266506,31.168116,hotel
B0JUFZQNPZ,上海虹桥国家会展中心兖矿郁锦香酒店,100100,徐泾镇明珠路303号,"121.269701,31.168915","121.265270,31.170960",4496,121.26527,31.17096,hotel
B0FFH87INR,全季酒店(上海虹桥枢纽徐泾店),100105,沪青平公路1929号,"121.271168,31.163862","121.266736,31.165908",4496,121.266736,31.165908,hotel
B0G33UZNIB,上海虹桥国家会展中心Moxy酒店,100100,沪青平公路2038号6幢,"121.264312,31.161548","121.259886,31.163600",4496,121.259886,31.1636,hotel
B0IG3A0EKD,上海虹桥西郊假日酒店大堂,100103,沪青平公路2000号上海虹桥西郊假日酒店,"121.2711,31.166059","121.266667,31.168104",4496,121.266667,31.168104,hotel
B0LUTH3RT5,上海虹桥开元名都酒店,100100,沪青平公路2018号,"121.268676,31.164112","121.264246,31.166160",4496,121.264246,31.16616,hotel
B0LRO9WSF2,GROVY LIFE森居栈,100200,沪青平公路2008号,"121.269875,31.165225","121.265444,31.167272",4496,121.265444,31.167272,hotel
B0LRS74TRJ,裕嘉公寓B栋,100200,徐泾镇育才路565号裕嘉公寓,"121.269248,31.166227","121.264817,31.168274",4496,121.264817,31.168274,hotel
B0LG718CXH,王乃豆的民宿(虹桥枢纽周边三店),100200,育才路与明珠路交叉口西南300米,"121.268025,31.166775","121.263595,31.168822",4496,121.263595,31.168822,hotel
B0MGJ7DDBD,御澜云亭,100100,张广泾路与叶联路交叉口东100米,"121.270825,31.162675","121.266393,31.164722",4496,121.266393,31.164722,hotel
B0LGRDBW24,盈港东圣地维拉店,100100,徐盈路与盈港东路交叉口东240米,"121.262625,31.167975","121.258199,31.170025",4496,121.258199,31.170025,hotel
B0FFIH6NAD,汉庭酒店(上海长江南路地铁站店),100105,长江南路475号,"121.482934,31.336173","121.478433,31.338098",7182,121.478433,31.338098,hotel
B0J6ZCUVOJ,君晟商务酒店(上海通南路地铁站店),100100,淞肇路321号(近淞南公园),"121.482613,31.34147","121.478110,31.343392",7182,121.47811,31.343392,hotel
B0FFFA2BKA,上海联盟之星酒店(长江南路淞肇路店),100100,淞肇路325号,"121.481748,31.34266","121.477242,31.344579",7182,121.477242,31.344579,hotel
B0I33UVGHY,汉庭酒店上海长江南路地铁站店大堂,100100,长江南路475号汉庭酒店(长江南路地铁站店),"121.483007,31.336269","121.478506,31.338194",7182,121.478506,31.338194,hotel
B0FFKHFQKI,舒悦中老年鞋(长江南路店),061100|100100,淞南八村社区北1门东南120米,"121.48205,31.335999","121.477546,31.337921",7182,121.477546,31.337921,other
B0KG1LD3VP,淞南六村民宿,100200,长逸路653号,"121.484566,31.337123","121.480071,31.339052",7182,121.480071,31.339052,hotel
B0G2A785R9,上海虹桥温德姆酒店,100100|170200,华翔路1989号(近虹桥机场),"121.303229,31.199775","121.298743,31.201762",4881,121.298743,31.201762,hotel
B0FFJRGMFI,上海鹰都商务酒店(虹桥机场国家会展中心店),100100,华翔路2215号,"121.302928,31.203032","121.298443,31.205018",4881,121.298443,31.205018,hotel
B0JG750FYV,创湾里酒店式公寓华翔路店,100100|100200,华翔路2221号,"121.303174,31.20385","121.298688,31.205835",4881,121.298688,31.205835,hotel
B0HDZC16OQ,欣虹汇,060100,华涞路35弄1-8号,"121.302217,31.198088","121.297733,31.200078",4881,121.297733,31.200078,mall
B0FFI5ZBV9,协展酒店(上海虹桥国家会展中心店),100100,徐灵路169号,"121.296027,31.199018","121.291555,31.201017",4881,121.291555,31.201017,hotel
B0LAOUQSPG,如家睿柏·云酒店(上海国家会展中心纪翟路店),100100,纪翟南路108号,"121.29841,31.204514","121.293933,31.206507",4881,121.293933,31.206507,hotel
B0FFLDQQMC,都就广场(紫堤苑店),060102,老北翟路紫堤苑,"121.297685,31.20582","121.293210,31.207813",4881,121.29321,31.207813,mall
B0FFFD3JMW,上海住乐精品宾馆,100100,紫堤路9号,"121.296627,31.205467","121.292154,31.207462",4881,121.292154,31.207462,hotel
B0FFKBF0ZO,魔方公寓上海虹桥枢纽店,100200,华翔路2215号,"121.303086,31.203025","121.298600,31.205011",4881,121.2986,31.205011,hotel
B0LRT1AUWI,鹰都酒店(虹桥枢纽店)-大堂,100100,华翔路与兴虹西路交叉口北120米,"121.303249,31.203056","121.298763,31.205042",4881,121.298763,31.205042,hotel
B0KK496GOA,纪翟路的民宿,100200,紫堤路与纪翟路交叉口东北80米,"121.297075,31.206725","121.292601,31.208719",4881,121.292601,31.208719,hotel
B0K2GSB3W5,海芸酒店式公寓,100100,华翔路2239号-101,"121.302502,31.202324","121.298017,31.204311",4881,121.298017,31.204311,hotel
B0FFI9PQZK,上海和气民宿,100200,徐泾镇徐灵路二联佳苑200弄114号,"121.295633,31.200465","121.291162,31.202464",4881,121.291162,31.202464,hotel
B0FFK0TUUR,红企鹅精品公寓,100200,纪翟南路165号,"121.300313,31.203998","121.295833,31.205988",4881,121.295833,31.205988,hotel
B0LBL9RM5V,上海东湖酒店(未),100100,北翟支路与紫苑路交叉口西南60米,"121.295775,31.203575","121.291303,31.205572",4881,121.291303,31.205572,hotel
B0JDU6FG5E,国家展会中心民宿,100200,纪翟支路与纪翟路交叉口西80米,"121.299261,31.203459","121.294783,31.205451",4881,121.294783,31.205451,hotel
B0LR0OP45Z,之青公寓B栋,100200,北翟支路5188号之青公寓,"121.298675,31.205925","121.294198,31.207917",4881,121.294198,31.207917,hotel
B0M6T75I1I,宜客民宿(七宝古镇店),100200,涞坊路与沪亭北路交叉口北200米,"121.313825,31.153975","121.309321,31.155967",5003,121.309321,31.155967,hotel
B0FFGCEQJG,松悦宾馆(航头地铁站店),100100,航南公路285号,"121.588,31.021137","121.583811,31.023450",8290,121.583811,31.02345,hotel
B0K0TMMZ1P,金泽元拾光里,060101|080304,虹湾路99弄金泽元·拾光里广场,"121.473216,31.312558","121.468684,31.314464",7052,121.468684,31.314464,mall
B0LAJ7RVTJ,安馨公寓,100200,三门路与凉城路交叉口西北120米,"121.471171,31.311283","121.466633,31.313184",7052,121.466633,31.313184,hotel
B0LKXKGX3M,虾米公寓,100200,高境路与安汾路交叉口东北120米,"121.477275,31.316075","121.472756,31.317991",7052,121.472756,31.317991,hotel
B0L1DUUWSW,安歆公寓A栋,100200,元博商务2号楼,"121.480175,31.308325","121.475667,31.310252",7052,121.475667,31.310252,hotel
B0IR4U32WS,亚可酒店大堂,100100,秋竹路1029号上海亚可酒店,"121.217439,31.386081","121.212982,31.388025",4012,121.212982,31.388025,hotel
B0KUCNUH4M,魔方公寓(嘉定魔力之城店),100200,菊园新区胜辛路3393号中国石化盘安加油站对面,"121.223975,31.377875","121.219526,31.379828",4012,121.219526,31.379828,hotel
B0FFGC3EAW,太平洋生活广场,060102,民星路378号(包头路),"121.539324,31.312254","121.535019,31.314348",7814,121.535019,31.314348,mall
B0I2C5D5WP,全季酒店(上海五角场长海医院店),100105,民星路415号,"121.537832,31.311103","121.533523,31.313194",7814,121.533523,31.313194,hotel
B0FFJVH0ZK,星程酒店(上海五角场长海医院店),100100,民星路560号(近嫩江路地铁站2号出口),"121.534248,31.311687","121.529928,31.313769",7814,121.529928,31.313769,hotel
B0J25MHN15,唯庭轻居酒店(上海五角场长海医院店),100100,包头路193号,"121.538277,31.311196","121.533969,31.313288",7814,121.533969,31.313288,hotel
B0HGF55I8T,阳普邻里·勤海,060102,市光一村115-116号,"121.536315,31.317197","121.532001,31.319282",7814,121.532001,31.319282,mall
B0FFJSHGQK,吉泰酒店(上海共青森林公园长海医院店),100100,民星路376-4号201-204室,"121.539999,31.311662","121.535696,31.313758",7814,121.535696,31.313758,hotel
B0I3A5UFTZ,申住酒店(上海长海医院翔殷路地铁站店),100100,包头路170号,"121.5388,31.310455","121.534494,31.312549",7814,121.534494,31.312549,hotel
B00156NST0,上海艾风宾馆,100100,包头路180号(一帆家政隔壁),"121.538832,31.310728","121.534526,31.312822",7814,121.534526,31.312822,hotel
B0JG5ZTZDX,民欣公寓,100200,包头路280号二楼,"121.538845,31.313165","121.534539,31.315258",7814,121.534539,31.315258,hotel
B0FFM6QGLP,凉城购物中心,060101,车站南路330号,"121.474755,31.294976","121.470230,31.296893",7050,121.47023,31.296893,mall
B0FFG4DKMT,东明生活广场,060100,车站南路330弄2-6号近水电路世纪联华1楼,"121.474747,31.295059","121.470222,31.296976",7050,121.470222,31.296976,mall
B00155KD2M,上海鑫朝时尚宾馆,100100,新市南路960弄20-1号2层,"121.480519,31.297569","121.476013,31.299501",7050,121.476013,31.299501,hotel
B00155I2CW,上海佳怡宾馆(凉城路店),100100,凉城路789号,"121.470928,31.297719","121.466390,31.299625",7050,121.46639,31.299625,hotel
B0K357M2YP,小小梦想家的民宿(江湾/五角场商业区店),100200,汶水东路辅路与水电路交叉口西北300米,"121.474725,31.291225","121.470200,31.293144",7050,121.4702,31.293144,hotel
B0LGHRT894,小蓝驿站,100200,水电路与汶水东路辅路交叉口西北120米,"121.476875,31.290625","121.472357,31.292550",7050,121.472357,31.29255,hotel
B0H1KH2FYJ,万泰广场,060101|060102,广灵二路265号,"121.475046,31.283598","121.470523,31.285521",7049,121.470523,31.285521,mall
B0JDPRT0CD,露美家天虹大酒店(上海虹口足球场赤峰路地铁站店),100100,水电路680号,"121.475899,31.283155","121.471379,31.285080",7049,121.471379,31.28508,hotel
B0FFG4YJMI,榴桃客栈(上海大柏树地铁站店),100200,汶水东路528号3楼(近地铁站大柏树1号出口),"121.478359,31.289213","121.473846,31.291143",7049,121.473846,31.291143,hotel
B0LUZ7XVHN,鸿答宾馆(上海虹口足球场赤峰路地铁站店),100100,广灵二路317号,"121.473273,31.283893","121.468744,31.285811",7049,121.468744,31.285811,hotel
B0IRSXJ5FC,业成酒家(科兰公寓店),050100|100100,广灵四路340号,"121.472968,31.287266","121.468438,31.289182",7049,121.468438,31.289182,other
B0M6VUJ9HT,易佰连锁旅店(广灵二路店),100200,广灵二路317号(近水电路)步行3号线赤峰路站需8分钟,"121.473382,31.283849","121.468853,31.285767",7049,121.468853,31.285767,hotel
B0L037CL3M,上海露美家公寓式酒店(虹口赤峰路地铁站店),100100,水电路680号,"121.475425,31.282875","121.470903,31.284799",7049,121.470903,31.284799,hotel
B0FFIVIAVA,海军上海第一招待所(海怡宾馆),100200,广灵二路281号,"121.473844,31.282737","121.469317,31.284657",7049,121.469317,31.284657,hotel
B0015593KN,朝鑫宾馆(凉城路店),100200|100100,凉城路400号,"121.470815,31.287537","121.466278,31.289447",7049,121.466278,31.289447,hotel
B0M69492ST,安妮诗的民宿(虹口足球场地区店),100200,汶水东路辅路与新市路交叉口东南40米,"121.481125,31.289575","121.476622,31.291512",7049,121.476622,31.291512,hotel
B0LGRK7Q6C,汶水东路民宿(虹口足球场地区店),100200,汶水东路辅路与水电路交叉口东80米,"121.478275,31.289275","121.473762,31.291204",7049,121.473762,31.291204,hotel
B0FFFDU86B,熙街公寓(广灵二路新店),100200|120300,广灵二路317号4楼,"121.473301,31.283739","121.468772,31.285657",7049,121.468772,31.285657,hotel
B0M6FSYCRO,上海Fortuner舒适公寓(四川北路1号店),100100,广灵二路与水电路交叉口西300米,"121.473243,31.283866","121.468714,31.285784",7049,121.468714,31.285784,hotel
B0FFJUFYX8,幕天商业广场,060102,博华路989号,"121.549901,31.17182","121.545637,31.174001",7925,121.545637,31.174001,mall
B0FFIIIBML,唐人幸福里,060102,陈春路109号(陈春路地铁站2号口步行430米),"121.554569,31.173149","121.550316,31.175338",7925,121.550316,31.175338,mall
B0FFK6RZAR,全季酒店(上海新国际博览中心博华路店),100105,博华路989号,"121.550204,31.171731","121.545941,31.173913",7925,121.545941,31.173913,hotel
B0IGN78MO7,魔方公寓(新国际博览中心店),100200,博华路989号4层,"121.550158,31.171721","121.545895,31.173902",7925,121.545895,31.173902,hotel
B0MBPU1GQL,幕天寓(北蔡店),100200,陈春路299号4层(幕天商业广场),"121.55018,31.171768","121.545917,31.173950",7925,121.545917,31.17395,hotel
B0MRNN552Y,佩玛福悦艺术生活中心,060102,陈春路109号(陈春路地铁站2号口步行490米),"121.554569,31.173149","121.550316,31.175338",7925,121.550316,31.175338,mall
B0LGHSJWKX,四季公寓(松江泖亭路店),100200,泖亭路970号,"121.28539,30.99632","121.280953,30.998446",4604,121.280953,30.998446,hotel
B0GURRP535,潮泰公寓,100100,泖亭路与香泖路交叉口东80米,"121.282728,30.996003","121.278295,30.998132",4604,121.278295,30.998132,hotel
B0J2P93Q2O,华怡酒店 临洮路 地铁站店,100100,海波路623号,"121.335945,31.267758","121.331381,31.269654",5396,121.331381,31.269654,hotel
B0FFL0EQ3R,泰恒酒店(上海虹桥机场国展中心店),100100,华江支路685号,"121.338574,31.265204","121.334004,31.267096",5396,121.334004,31.267096,hotel
B0LASX2FIH,曼枫奢享酒店(上海嘉怡路地铁站国展中心店),100100,江桥镇华江支路645号,"121.338715,31.2639","121.334145,31.265792",5396,121.334145,31.265792,hotel
B0FFIXRUGU,城家公寓酒店(上海江桥临洮路地铁站店),100100,曹安公路2606号3-5层(临洮路地铁站1号口步行430米),"121.335487,31.263051","121.330924,31.264950",5396,121.330924,31.26495,hotel
B0JA7ZXIJ2,上海峤意酒店(嘉怡路地铁站店),100100,曹安公路2300弄288号,"121.340697,31.261782","121.336123,31.263671",5396,121.336123,31.263671,hotel
B0I01HVL61,吉兆公寓,100200,曹安公路2622号(临洮路地铁站1口步行300米),"121.334589,31.26298","121.330028,31.264880",5396,121.330028,31.26488,hotel
B0IDXHSQJB,泰恒酒店大堂,100100,华江支路685号泰恒酒店(上海虹桥机场国展中心店),"121.33865,31.26522","121.334080,31.267112",5396,121.33408,31.267112,hotel
B0J2HUP39T,轻宿民宿(嘉涌路店),100200,嘉涌路88弄丽江佳苑,"121.336898,31.268079","121.332332,31.269973",5396,121.332332,31.269973,hotel
B0LUCPSUU0,聪聪公寓(虹桥机场国家会展中心店),100200,华江支路与海蓝路交叉口西220米,"121.336825,31.264125","121.332259,31.266021",5396,121.332259,31.266021,hotel
B0J29O7YEH,瀚取青年公寓,100200,江桥镇曹安公路2516号,"121.337259,31.262257","121.332692,31.264153",5396,121.332692,31.264153,hotel
B0LR0OON2O,华城寓酒店A栋,100100,曹安公路与华江支路交叉口西北100米,"121.338095,31.262017","121.333527,31.263911",5396,121.333527,31.263911,hotel
B0IB3H95WP,如家睿柏·云酒店(上海松江车墩影视乐园店),100100,影视路149号,"121.311287,31.012419","121.306800,31.014495",4987,121.3068,31.014495,hotel
B0FFGL9IHJ,汉庭酒店(上海松江影视乐园店),100105,车墩镇新车公路庵后路8号,"121.307863,31.01748","121.303383,31.019559",4987,121.303383,31.019559,hotel
B00157GK3D,锦江之星(上海车墩影视城店),100105,车墩镇影维路258弄27号(北松公路与交汇口),"121.316793,31.014263","121.312294,31.016328",4987,121.312294,31.016328,hotel
B0FFIVQPTG,君馨宾馆(上海车墩影视城店),100100,车墩镇联营路72弄1号3层家得乐超市旁,"121.312156,31.016864","121.307667,31.018936",4987,121.307667,31.018936,hotel
B0G2PSGMX1,翔瑞宾馆(上海松江车墩影视乐园店),100100,影视路128号,"121.311982,31.012682","121.307494,31.014757",4987,121.307494,31.014757,hotel
B00156EQ38,上海新芳旅馆,100100,北松公路4915弄8号,"121.310216,31.013957","121.305731,31.016034",4987,121.305731,31.016034,hotel
B00156O8MR,悦己宾馆(上海松江车墩影视乐园店),100200,车墩镇振兴路桥头下(新余村180号)悦己宾馆,"121.309199,31.016489","121.304716,31.018566",4987,121.304716,31.018566,hotel
B0I3HC6RS8,99优选酒店(上海影视乐园车墩站店),100100,车墩镇影视路113号,"121.312383,31.012443","121.307894,31.014517",4987,121.307894,31.014517,hotel
B00156ZI7I,上海贺怡旅馆,100200,联营路79号,"121.311575,31.016722","121.307087,31.018795",4987,121.307087,31.018795,hotel
B0FFJ2J05U,上海怡依宾馆,100100,车墩镇影视路168号,"121.31084,31.012701","121.306354,31.014778",4987,121.306354,31.014778,hotel
B001579B8O,上海车墩98连锁旅馆,100200,虬长路312号,"121.307464,31.015108","121.302985,31.017189",4987,121.302985,31.017189,hotel
B0015579VR,金超旅馆,100200,北松公路4709号,"121.310714,31.014105","121.306228,31.016181",4987,121.306228,31.016181,hotel
B00157HMYE,车鑫宾馆(原车兴旅馆),100100,影视路163号,"121.310774,31.012403","121.306288,31.014480",4987,121.306288,31.01448,hotel
B00157BKQR,上海新怡宾馆(影视路店),100100,车墩镇影视路40号,"121.314308,31.012943","121.309815,31.015013",4987,121.309815,31.015013,hotel
B001557U45,上海顺达旅馆,100100,联营路103号,"121.311377,31.017034","121.306890,31.019107",4987,121.30689,31.019107,hotel
B0FFFOZJIV,上海谷翠宾馆,100100,联营路91号,"121.31159,31.016876","121.307102,31.018949",4987,121.307102,31.018949,hotel
B0JGTCQQBO,华欣旅馆(联营路店),100200,车墩镇联营路81号,"121.311594,31.016774","121.307106,31.018847",4987,121.307106,31.018847,hotel
B0015584GH,星园旅馆(影城路店),100200,车墩镇影城路16号,"121.310203,31.013838","121.305718,31.015915",4987,121.305718,31.015915,hotel
B0FFHNHTLU,上海梦米萨假日宾馆,100100,车墩镇影视路17号,"121.315328,31.012577","121.310832,31.014645",4987,121.310832,31.014645,hotel
B0FFF00OYQ,上海惠园旅馆,100200|100100,车墩镇影视路150-152号,"121.311225,31.012625","121.306738,31.014701",4987,121.306738,31.014701,hotel
B00155QZBQ,彭刚旅馆(上海车墩影视城店),100200,车墩镇北松路4948号,"121.309117,31.014462","121.304635,31.016541",4987,121.304635,31.016541,hotel
B001579GMY,上海园丰旅馆,100200,车墩镇鱼塘村303号,"121.310868,31.014097","121.306382,31.016173",4987,121.306382,31.016173,hotel
B0H6C5YT1M,其灵人才公寓(G60科创走廊),100200,李高路58弄10、13号,"121.315961,31.015731","121.311464,31.017796",4987,121.311464,31.017796,hotel
B0L6OGRH45,住宿洗浴汗蒸,100200|071400,影视路与影维路交叉口西180米,"121.314326,31.012555","121.309833,31.014625",4987,121.309833,31.014625,hotel
B0IG0M6KXD,锦江之星上海车墩影视城店大堂,100105,车墩镇影维路258弄27号锦江之星(上海车墩影视城店),"121.316789,31.014255","121.312290,31.016320",4987,121.31229,31.01632,hotel
B0I0NA6IH9,99优选酒店上海松江影视乐园店大堂,100100,车墩镇影视路113号99优选酒店(上海影视乐园车墩站店),"121.312166,31.012457","121.307677,31.014531",4987,121.307677,31.014531,hotel
B0LKTHVNI0,兴旺旅馆,100200,振兴路46号,"121.309553,31.016568","121.305070,31.018645",4987,121.30507,31.018645,hotel
B001579EP6,毛毛旅馆,100200,车墩镇车墩村174号,"121.308155,31.016407","121.303675,31.018486",4987,121.303675,31.018486,hotel
B0IGBZK346,毛毛雅居,100200,振兴路与庵后路交叉口西南160米,"121.308278,31.016389","121.303797,31.018468",4987,121.303797,31.018468,hotel
B0JU4XBXSA,车墩好莱坞公寓,100200,影维路与影视路交叉口东南140米,"121.317325,31.011925","121.312825,31.013990",4987,121.312825,31.01399,hotel
B0K6MMEOKH,小猪·青年旅社(车墩虬长路劳务市场店),100201,北松公路与联营路交叉口东120米,"121.31309,31.01479","121.308599,31.016861",4987,121.308599,31.016861,hotel
B0ID5N7H40,富琳公寓,100200,影维路与北松公路交叉口西北100米,"121.315775,31.015625","121.311278,31.017691",4987,121.311278,31.017691,hotel
B0FFH7QIKJ,融创精彩天地,060100,石泉东路286弄,"121.431841,31.255084","121.427211,31.256927",6538,121.427211,31.256927,mall
B0I6ZDH0NS,全季酒店(上海大宁宜川路店),100100,宜川路310号(近延长西路),"121.437512,31.262625","121.432891,31.264473",6538,121.432891,31.264473,hotel
B0FFM2X13D,宜乐汇,060102,宜川路299号-311号,"121.43799,31.26276","121.433370,31.264609",6538,121.43337,31.264609,mall
B0FFFT4NJW,永乐文化广场,060102,宜川路300号(延长西路),"121.437685,31.26196","121.433064,31.263809",6538,121.433064,31.263809,mall
B0L0KKOCQM,潮漫酒店(上海宜川路店),100105,宜川路310号,"121.437501,31.262662","121.432880,31.264510",6538,121.43288,31.26451,hotel
B0GURLQ8XA,融创精彩天地A区,060100,宜川路街道石泉东路286弄融创精彩天地A区2楼,"121.431387,31.255262","121.426756,31.257105",6538,121.426756,31.257105,mall
B0FFGF3B6F,仲廷酒店(上海同济医院宜川路店),100100,宜川路300号B幢,"121.437261,31.262157","121.432640,31.264005",6538,121.43264,31.264005,hotel
B00155MPRP,青季酒店MINI(上海火车站中潭路地铁站店),100105,延长西路328号,"121.437387,31.261606","121.432766,31.263455",6538,121.432766,31.263455,hotel
B0GU26CPQV,融创精彩天地B区,060100,石泉东路与光新路交叉口东北160米,"121.432282,31.255279","121.427653,31.257123",6538,121.427653,31.257123,mall
B0HGUKCI9P,上海海山凤凰酒店(同济医院新村路地铁站店),100100,甘泉路471号,"121.430296,31.26212","121.425663,31.263958",6538,121.425663,31.263958,hotel
B0LKKCNZOP,99旅馆连锁(上海火车站中潭路地铁站店),100105|100200,延长西路328号,"121.43747,31.261609","121.432849,31.263458",6538,121.432849,31.263458,hotel
B00156O8SR,福辰商城,060102,宜川路310号福辰商务楼,"121.437541,31.262651","121.432920,31.264499",6538,121.43292,31.264499,mall
B0FFLM762L,Zsmart智尚酒店(上海中潭路地铁站店),100100,交通路1979号3层,"121.436025,31.257267","121.431402,31.259115",6538,121.431402,31.259115,hotel
B0FFIWPE2W,海上凤凰酒店(上海同济医院甘泉路店),100100,甘泉路137号,"121.430325,31.262113","121.425692,31.263951",6538,121.425692,31.263951,hotel
B00155I2BX,佳欣旅馆(志丹路店),100200,志丹路160号美中商务楼F3层,"121.431231,31.2609","121.426599,31.262740",6538,121.426599,31.26274,hotel
B0FFI11SF0,启稚之星全能儿童成长中心,100105|070000,光烨写字楼北门旁,"121.43026,31.262111","121.425627,31.263949",6538,121.425627,31.263949,hotel
B0M617IJZF,干净整洁的民宿,100200,延长西路与宜川路交叉口西120米,"121.437025,31.261775","121.432403,31.263623",6538,121.432403,31.263623,hotel
B0LKNLRHUS,伦芭曼酒店,100100,宜川路与延长西路交叉口西北100米,"121.437625,31.262625","121.433004,31.264473",6538,121.433004,31.264473,hotel
B0GD1ROV4K,全季酒店(上海梅陇万辉国际广场店),100100,罗锦路118号,"121.418815,31.122953","121.414180,31.124849",6269,121.41418,31.124849,hotel
B0J1JAVZ7J,桔子酒店(上海万辉国际广场店),100100,梅陇镇罗锦路98号2号楼,"121.419736,31.123178","121.415102,31.125074",6269,121.415102,31.125074,hotel
B00156EECG,上居公寓,100100,虹梅南路罗锦路69号,"121.420207,31.124424","121.415573,31.126320",6269,121.415573,31.12632,hotel
B0L067O9CJ,网鱼电竞酒店(上海闵行万辉国际广场店),100100,罗锦路69号,"121.420425,31.124793","121.415792,31.126689",6269,121.415792,31.126689,hotel
B00156EEB8,7天连锁酒店(上海虹梅南路店),100105,罗锦路69号3号楼,"121.420654,31.124618","121.416021,31.126514",6269,121.416021,31.126514,hotel
B0FFHDNAFV,同乐公寓,100100,同乐路158号,"121.419672,31.124919","121.415038,31.126814",6269,121.415038,31.126814,hotel
B0G3ZRTUN4,上圳公寓,120302|100200,梅陇镇罗锦路218号上圳公寓,"121.416242,31.122418","121.411605,31.124312",6269,121.411605,31.124312,other
B0KUG5I1BG,桔子酒店上海万辉国际广场店大堂,100100,梅陇镇罗锦路98号2号楼桔子酒店(上海万辉国际广场店),"121.419979,31.123289","121.415345,31.125185",6269,121.415345,31.125185,hotel
B0JRPHJWZ9,悦徕国际公寓,100200,莘朱路与罗锦路交叉口西南60米,"121.416619,31.122383","121.411983,31.124277",6269,121.411983,31.124277,hotel
B0L1OCOQ7C,喜迎来客民宿,100200,罗锦路218号2号楼173室,"121.4159,31.122018","121.411263,31.123912",6269,121.411263,31.123912,hotel
B0M69Y98CK,新新客栈(梅陇上海南站店),100200,罗锦路与莘朱路交叉口西南140米,"121.415925,31.121775","121.411288,31.123669",6269,121.411288,31.123669,hotel
B0LDZ9Q0YV,中湾公寓,120302|100200,罗锦路与龙中路交叉口东北80米,"121.417775,31.123475","121.413139,31.125369",6269,121.413139,31.125369,other
B0L3AZQY31,同乐公寓A栋,100200,同乐路158号同乐公寓,"121.419675,31.124925","121.415041,31.126820",6269,121.415041,31.12682,hotel
B0FFFA214M,海伦精致生活广场,060102,淞南镇长逸路258号,"121.491122,31.337494","121.486650,31.339442",7309,121.48665,31.339442,mall
B0KKKADHIY,和欣假日商业广场,060102,淞发路89号(淞发路地铁站1号口步行440米),"121.496233,31.343428","121.491779,31.345390",7309,121.491779,31.34539,mall
B0LKHMQ791,桔子上海复旦大学淞发路地铁站酒店,100105,淞发路58弄88号,"121.497556,31.343508","121.493106,31.345474",7309,121.493106,31.345474,hotel
B0L26ZESPZ,丽泊智选酒店公寓(上海淞发路地铁站淞南路店),100100,淞南路353号,"121.491637,31.343912","121.487166,31.345860",7309,121.487166,31.34586,hotel
B0FFH4MGZP,友家公寓(淞发路地铁站店),100200,淞发路25弄50号(淞发路地铁站1号口步行330米),"121.497638,31.344172","121.493189,31.346138",7309,121.493189,31.346138,hotel
B00156O9KI,上海宾宏酒店,100100,淞南路239号-1,"121.491637,31.342894","121.487166,31.344842",7309,121.487166,31.344842,hotel
B0H32Z3KHH,海伦领寓(长租公寓),100100,长逸路258号4楼401室,"121.491111,31.337485","121.486639,31.339433",7309,121.486639,31.339433,hotel
B0KUFA4NQT,华滋驿栈,100200,淞良路109号,"121.491443,31.336342","121.486972,31.338292",7309,121.486972,31.338292,hotel
B0FFFA2BI5,满升公寓,100200,淞南镇长逸路172号2层,"121.494293,31.338395","121.489832,31.340353",7309,121.489832,31.340353,hotel
B0LBRZ5W7Z,忻辉公寓,100200,长逸路与淞南路交叉口东180米,"121.494175,31.338475","121.489714,31.340432",7309,121.489714,31.340432,hotel
B0LKG526E2,华滋奔腾公寓,100200,淞良路与淞塘路交叉口北120米,"121.491325,31.336275","121.486853,31.338224",7309,121.486853,31.338224,hotel
B00150ABD3,华润时代广场,060101,张杨路500号,"121.517528,31.22703","121.513160,31.229102",7550,121.51316,31.229102,mall
B00155DBIJ,上海湾,060101,浦东南路1138号(商城路地铁站3号口步行380米),"121.514813,31.227033","121.510435,31.229098",7550,121.510435,31.229098,mall
B0FFK932XT,世茂52+,060102|070000,浦城路680号,"121.514908,31.22371","121.510531,31.225776",7550,121.510531,31.225776,mall
B0FFHDWP1A,全季酒店(上海陆家嘴浦东南路店),100105,潍坊西路73号,"121.517228,31.223206","121.512859,31.225279",7550,121.512859,31.225279,hotel
B00156F9JR,汉庭酒店(上海陆家嘴浦东南路店),100105,浦东南路1466弄30号,"121.516505,31.222003","121.512134,31.224075",7550,121.512134,31.224075,hotel
B0J3HUNN7S,上海陆家嘴浦东南路亚朵酒店,100100,浦东南路1351号,"121.517765,31.224647","121.513398,31.226721",7550,121.513398,31.226721,hotel
B0IRLCESC8,上海陆家嘴第一八佰伴亚朵X酒店,100100,浦城路550号,"121.514079,31.225249","121.509699,31.227312",7550,121.509699,31.227312,hotel
B0HBYKHO1F,全季酒店(上海陆家嘴张杨路店),100100,浦东南路1271-1289号,"121.517428,31.226275","121.513059,31.228347",7550,121.513059,31.228347,hotel
B0H3BM0514,如家商旅酒店(上海陆家嘴东方明珠浦城路店),100100,浦城路531号,"121.51356,31.225462","121.509178,31.227524",7550,121.509178,31.227524,hotel
B0FFGZEI5J,景莱酒店(上海陆家嘴东方明珠八佰伴店),100100,崂山路551弄19号(九六广场西侧),"121.522617,31.226742","121.518266,31.228829",7550,121.518266,31.228829,hotel
B0HAMU2VYR,上海陆家嘴八佰伴兰欧酒店,100100,浦东南路1271号华融大厦1层,"121.517033,31.2264","121.512663,31.228471",7550,121.512663,31.228471,hotel
B00155L4U2,宝安大酒店,100103|050000,东方路800号宝安大厦,"121.524003,31.226461","121.519657,31.228552",7550,121.519657,31.228552,hotel
B00154DWIH,中电大酒店,100104,南泉北路1029号,"121.518999,31.225709","121.514636,31.227786",7550,121.514636,31.227786,hotel
B0FFFVCVHZ,浅深休闲会所(上海世茂滨江店),100100|080000,潍坊西路1弄15号,"121.514476,31.222461","121.510097,31.224527",7550,121.510097,31.224527,hotel
B0MA4CUTQ5,云居酒店(上海陆家嘴世纪大道店),100100,南泉北路1029号10楼,"121.519425,31.225875","121.515063,31.227953",7550,121.515063,31.227953,hotel
B0FFFSZF22,吉泰连锁酒店(上海陆家嘴八佰伴店),100105,浦东南路1341弄6号,"121.518285,31.225049","121.513920,31.227124",7550,121.51392,31.227124,hotel
B0L05UTPOW,上海陆家嘴八佰伴枫渡酒店,100100,浦东南路1271华融大厦F1层,"121.51715,31.226154","121.512780,31.228226",7550,121.51278,31.228226,hotel
B0H0VU2EKY,兰欧酒店上海陆家嘴八佰伴店大堂,100100,陆家嘴八佰伴兰欧酒店,"121.51755,31.226295","121.513182,31.228368",7550,121.513182,31.228368,hotel
B0I10AZR63,上海府邸滨江公寓(潍坊路店),120302|100200,浦城路158东园,"121.51847,31.224007","121.514105,31.226084",7550,121.514105,31.226084,other
B0IRKNPAGN,魔都连锁公寓(天晟公寓)(崂山路分店),100100,崂山路与潍坊路交叉口北200米,"121.523434,31.226865","121.519086,31.228954",7550,121.519086,31.228954,hotel
B00155KXFW,宝安大酒店大堂吧,100100,宝安大酒店,"121.523706,31.226752","121.519359,31.228842",7550,121.519359,31.228842,hotel
B0FFJXK18V,H+酒店,100100,潍坊西路90号,"121.516116,31.222472","121.511743,31.224542",7550,121.511743,31.224542,hotel
B0J36NDADY,艾莉诺公寓(浦东南路分店),100200,浦东南路东南新村5号楼,"121.516774,31.224005","121.512403,31.226077",7550,121.512403,31.226077,hotel
B0MGOLWN3Y,荣居酒店式公寓,100100,谢家宅小区18乙,"121.516983,31.219567","121.512613,31.221641",7550,121.512613,31.221641,hotel
B0GRXS92QJ,乐筑公寓,100100,浦东南路1580号,"121.518373,31.220037","121.514008,31.222115",7550,121.514008,31.222115,hotel
B0FFG1V0YO,汉庭酒店(陆家嘴浦东南路店正门),100105,浦东南路1466弄30号汉庭酒店(上海陆家嘴浦东南路店),"121.51648,31.221865","121.512108,31.223937",7550,121.512108,31.223937,hotel
B00156NSD1,如家快捷酒店(陆家嘴金融中心店),100105,潍坊西路73号,"121.520083,31.22532","121.515724,31.227400",7550,121.515724,31.2274,hotel
B0MGJYBEWG,泊庭酒店,100100,纬一路与经二路交叉口南60米,"121.518925,31.220625","121.514562,31.222704",7550,121.514562,31.222704,hotel
B0M6FDYLO2,MUU HOME(出乎生活·浦东华润店),100200,张杨路500号华润时代广场2楼L201号,"121.517925,31.227025","121.513558,31.229099",7550,121.513558,31.229099,hotel
B0KDFGYFK9,宜居青年旅舍,100201,浦东南路与浦电路交叉口北140米,"121.519387,31.219482","121.515026,31.221563",7550,121.515026,31.221563,hotel
B0MGGP2RRL,上海温可可民宿(浦东陆家嘴店),100200,浦东南路与潍坊路交叉口东北40米,"121.518075,31.223525","121.513709,31.225601",7550,121.513709,31.225601,hotel
B0K356DI94,苏糖的高颜值民宿,100200,南泉路与浦电路交叉口北300米,"121.522868,31.221765","121.518519,31.223855",7550,121.518519,31.223855,hotel
B0JGYAZDTZ,7天酒店(上海陆家嘴店),100105,潍坊路5号,"121.518575,31.223675","121.514211,31.225752",7550,121.514211,31.225752,hotel
B0KK7S6U7U,滨江公寓温馨民宿,100200,潍坊路与浦东南路交叉口东北80米,"121.518529,31.223534","121.514164,31.225611",7550,121.514164,31.225611,hotel
B0KAJU4QX3,爱法小天地公寓,100200,浦东南路与浦电路交叉口东北100米,"121.519888,31.218829","121.515529,31.220912",7550,121.515529,31.220912,hotel
B0FFFFHVZF,优帕克服务式公寓(世茂滨江花园),100100,潍坊西路1-2弄,"121.51454,31.22215","121.510162,31.224216",7550,121.510162,31.224216,hotel
B0J0150D1R,乡情青年旅舍,100201,张杨路辅路与浦东南路辅路交叉口西南40米,"121.516105,31.22673","121.511732,31.228798",7550,121.511732,31.228798,hotel
B0FFI9O4B5,上海热闹商圈里的安静小屋,100105,南泉路与浦电路交叉口北220米,"121.522057,31.220995","121.517705,31.223083",7550,121.517705,31.223083,hotel
B00156R4UM,彩虹石笋里,060101,牌楼东路66弄1-90号,"121.648034,31.024176","121.643806,31.026441",9052,121.643806,31.026441,mall
B0FFI8SQZQ,上海灵珊酒店,100100,沪南公路7513号,"121.652029,31.030098","121.647793,31.032352",9052,121.647793,31.032352,hotel
B00156ODSQ,上海永捷旅馆(新场古镇店),100200,沪南公路7309、7313号,"121.643177,31.028153","121.638956,31.030423",9052,121.638956,31.030423,hotel
B0K1G5VDQE,先生对门中医康养民宿(新场古镇店),100200,新场大街275弄8号,"121.64642,31.022672","121.642195,31.024940",9052,121.642195,31.02494,hotel
B0HUK56YAH,御码头客栈,100200,新场镇海泉街17号6幢606室,"121.644079,31.024865","121.639857,31.027136",9052,121.639857,31.027136,hotel
B0FFF61ZAH,福长时尚宾馆(新场古镇店),100200|100100,康新公路28号,"121.642693,31.02878","121.638473,31.031051",9052,121.638473,31.031051,hotel
B0FFHCBG1T,上海馨宁旅馆,100200,康新公路16号,"121.64269,31.028459","121.638470,31.030730",9052,121.63847,31.03073,hotel
B0FFMEX317,上海三生公寓,100200,新场镇洪桥下塘街12弄6号,"121.648992,31.025871","121.644762,31.028133",9052,121.644762,31.028133,hotel
B00156ZULA,好好旅馆,100200,新场镇新奉公路82号,"121.642877,31.025796","121.638657,31.028068",9052,121.638657,31.028068,hotel
B0FFIYV452,康馨公寓,100200,康新公路与沪南公路交叉口北200米,"121.642079,31.02928","121.637860,31.031552",9052,121.63786,31.031552,hotel
B0FFFOH19C,亦璋旅馆,100200,新奉公路140号,"121.643285,31.024714","121.639065,31.026986",9052,121.639065,31.026986,hotel
B0G0VCLL8V,朗格公寓,100200,沪南公路与海泉街交叉口东北120米,"121.644286,31.028448","121.640064,31.030717",9052,121.640064,31.030717,hotel
B0LRVSKDBA,文旗公寓,100200,新奉公路122弄7支弄10号,"121.642191,31.024244","121.637972,31.026518",9052,121.637972,31.026518,hotel
B0MGSXNGT7,上海浦东新场古镇店,100100,牌楼东路与东后老街交叉口东100米,"121.648375,31.024725","121.644146,31.026989",9052,121.644146,31.026989,hotel
B0M6DO7YOE,游多多客栈,100200,牌楼东路与东后老街交叉口北180米,"121.647875,31.026275","121.643647,31.028539",9052,121.643647,31.028539,hotel
B0MGJYBME9,石笋里精品公寓,100200,牌楼东路66弄1-90号彩虹石笋里,"121.648025,31.024175","121.643797,31.026440",9052,121.643797,31.02644,hotel
B0G2AC6VJX,太平洋中环广场,060101,御秀路与御衡路交叉口,"121.579685,31.151958","121.575478,31.154192",8304,121.575478,31.154192,mall
B0FFFA1IWC,桔子水晶上海国际旅游度假区康桥酒店,100102,康桥路1789号,"121.586239,31.150908","121.582038,31.153147",8304,121.582038,31.153147,hotel
B0MBN1TXZ2,如家酒店neo(上海新国际博览中心罗山路地铁站店),100100,康桥路1605号,"121.582891,31.15072","121.578688,31.152957",8304,121.578688,31.152957,hotel
B0LUFARZ7F,汉庭酒店(上海浦东新国际博览中心罗山路地铁站店),100100,康桥路1603号,"121.58229,31.150878","121.578086,31.153115",8304,121.578086,31.153115,hotel
B0G2PRKTX4,壹号宾馆(上海罗山路地铁站店),100100,康桥路1657弄10号(罗山路地铁站西南800米),"121.584255,31.150658","121.580053,31.152896",8304,121.580053,31.152896,hotel
B0FFG140DZ,上海康适美居酒店(康桥路罗山地铁站店),100100,康桥路1657弄14号3楼,"121.584175,31.150675","121.579973,31.152913",8304,121.579973,31.152913,hotel
B0FFF9ZH3L,上海尚宾时尚宾馆(康桥路店),100200,康桥路1518号,"121.578282,31.149993","121.574074,31.152227",8304,121.574074,31.152227,hotel
B0I0A7897T,桔子水晶酒店上海迪斯尼康桥店大堂,100102,康桥路1789号桔子水晶上海国际旅游度假区康桥酒店,"121.586192,31.150821","121.581991,31.153060",8304,121.581991,31.15306,hotel
B0FFI7US6X,上海浦东君雅宾馆,100100,康桥镇康桥路1526号(靠近迪士尼),"121.578434,31.150005","121.574226,31.152239",8304,121.574226,31.152239,hotel
B0J06CQGLF,格林豪泰酒店集团,100105,康桥路与御秀路交叉口东120米,"121.582857,31.150794","121.578654,31.153031",8304,121.578654,31.153031,hotel
B0KRRSVZ68,中环汇领寓驿站,100200|120000,康桥路与御霞路交叉口东南260米,"121.586575,31.148175","121.582375,31.150416",8304,121.582375,31.150416,hotel
B0FFGH2T4O,一心玛特购物中心(合庆店),060101,东川公路5979号,"121.720131,31.235249","121.715764,31.237279",9964,121.715764,31.237279,mall
B00156YYAO,美加亿广场,060101,合庆镇庆南路8号,"121.719329,31.238242","121.714962,31.240271",9964,121.714962,31.240271,mall
B0FFJFS3RF,森壹酒店(上海浦东国际机场店),100100,合庆镇前哨路59号,"121.718385,31.238347","121.714019,31.240377",9964,121.714019,31.240377,hotel
B0FFHXKS4G,舒梦旅馆(合庆一心玛特购物中心店),100200,东川公路5979号一心玛特购物中心合庆店F1层,"121.720518,31.235752","121.716150,31.237781",9964,121.71615,31.237781,hotel
B0KDPDZAKM,名品眼镜一心玛特超市(合庆店),060102,东川公路5979号,"121.720175,31.235275","121.715808,31.237305",9964,121.715808,31.237305,mall
B0FFFPVLGD,爱尚居公寓,100100,庆荣路159弄1号3楼,"121.717556,31.235774","121.713191,31.237806",9964,121.713191,31.237806,hotel
B0K3CY7C6W,梦舒旅馆,100200,川沙合庆镇庆荣路262弄165号,"121.720525,31.235875","121.716157,31.237904",9964,121.716157,31.237904,hotel
B0ID6KRDHJ,上海实惠旅馆,100200,前哨路与东川公路交叉口东80米,"121.718692,31.238481","121.714326,31.240511",9964,121.714326,31.240511,hotel
B0FFJ86U7A,简家公寓,100200,庆荣路与小白支路交叉口东南20米,"121.717186,31.235319","121.712822,31.237352",9964,121.712822,31.237352,hotel
B0M6XUR3H1,舒沁公寓,100200,东川公路5979号一心玛特购物中心(合庆店),"121.719625,31.235225","121.715258,31.237255",9964,121.715258,31.237255,hotel
B0M6XUSBCW,舒沁公寓,100200,东川公路与庆荣路交叉口北60米,"121.718875,31.236575","121.714509,31.238606",9964,121.714509,31.238606,hotel
B00155MQ9U,汉庭酒店(上海西藏北路地铁站店),100105,西藏北路1318号(西藏北路地铁站4号口步行360米),"121.465595,31.264073","121.461044,31.265979",6920,121.461044,31.265979,hotel
B0G0P9H6UL,如家商旅酒店(上海大宁国际广场西藏北路地铁站店),100100,柳营路518号,"121.461759,31.266041","121.457196,31.267937",6920,121.457196,31.267937,hotel
B001570D54,桔子酒店(西藏北路地铁站店),100105,中山北路311号龙金大厦(西藏北路地铁站4号口步行10米),"121.468038,31.264109","121.463494,31.266021",6920,121.463494,31.266021,hotel
B0LB2MPRWL,全季酒店(全季上海静安闸北公园酒店),100100,柳营路590号2楼(近共和新路),"121.46064,31.265444","121.456074,31.267337",6920,121.456074,31.267337,hotel
B0LKUDYB2M,际庭X青旅(上海火车站店),100201,共和新路街道和田路288弄1号203室,"121.462522,31.265954","121.457961,31.267851",6920,121.457961,31.267851,hotel
B0HKF6U6XT,如家酒店·neo(上海大宁国际闸北公园店),100100,洛川东路370号,"121.461355,31.26965","121.456791,31.271543",6920,121.456791,31.271543,hotel
B0H0VC1ZMO,景莱酒店·臻选(上海西藏北路地铁站店),100100,俞泾港路6号(西藏北路地铁站1号口步行390米),"121.467075,31.266363","121.462528,31.268272",6920,121.462528,31.268272,hotel
B0I13DT7Z1,景莱酒店·轻奢(民和路店),100105,西藏北路1588号民和路220号,"121.464097,31.26684","121.459541,31.268741",6920,121.459541,31.268741,hotel
B0H27ZW0IO,城家公寓(上海大宁西藏北路地铁站店),100200|100100,民和路153号4幢3楼(近平型关路),"121.467459,31.2688","121.462913,31.270709",6920,121.462913,31.270709,hotel
B0FFG954Y6,立源都市宾馆(上海大宁国际闸北公园店),100100,洛川东路161号5楼,"121.464531,31.271898","121.459976,31.273798",6920,121.459976,31.273798,hotel
B0L0M7AIWI,夏至和风酒店(上海大宁国际广场西藏北路地铁站店),100100,和田路288弄-1号201,"121.462689,31.265592","121.458129,31.267490",6920,121.458129,31.26749,hotel
B0FFGBQX5S,99旅馆连锁(柳营路店),100105,柳营路299号,"121.465261,31.268719","121.460708,31.270622",6920,121.460708,31.270622,hotel
B001579J4E,易佰良品酒店(上海西藏北路地铁站店),100105,平型关路56号2幢5楼(西藏北路地铁站1口步行220米),"121.467544,31.265445","121.462998,31.267355",6920,121.462998,31.267355,hotel
B00151F0C4,圣裕商务宾馆,100100,中山北路237号(西藏北路地铁站1号口步行80米),"121.469401,31.264656","121.464861,31.266571",6920,121.464861,31.266571,hotel
B0M6JCF9D0,梦想青年旅舍,100201,平型关路与陈家宅路交叉口南60米,"121.467725,31.264725","121.463180,31.266636",6920,121.46318,31.266636,hotel
B0FFK02NFE,蚂蚁公舍(平型关路店),100100|100200|120000,平型关路56号(西藏北路地铁站4号口步行230米),"121.467392,31.26536","121.462846,31.267270",6920,121.462846,31.26727,hotel
B0KGZ7Z3PG,可遇民宿(上海虹口足球场店),100200,平型关路38号(和源大楼1号楼),"121.467613,31.264984","121.463068,31.266895",6920,121.463068,31.266895,hotel
B0FFF0BLGA,莱客酒店(柳营路店),100100,柳营路183号行知公寓,"121.466987,31.269854","121.462439,31.271761",6920,121.462439,31.271761,hotel
B0M6TZ2PAY,如家快捷酒店,100100,洛川东路与平型关路交叉口西南220米,"121.461586,31.269848","121.457022,31.271742",6920,121.457022,31.271742,hotel
B0LKVP3PY2,嘴角的烟蒂的高颜值民宿,100200,平型关路与民和路交叉口西南60米,"121.466575,31.267375","121.462026,31.269282",6920,121.462026,31.269282,hotel
B0LKFLUQYH,馆长民宿(大宁国际商业区一店),100200,平型关路与民和路交叉口西南60米,"121.466575,31.267375","121.462026,31.269282",6920,121.462026,31.269282,hotel
B001556IHW,如家快捷酒店(上海共和新路大宁国际闸北公园店),100105,柳营路518号,"121.461876,31.266198","121.457313,31.268094",6920,121.457313,31.268094,hotel
B00155LLJW,吉旅时尚酒店,100100,洛川东路370号,"121.461256,31.269593","121.456691,31.271486",6920,121.456691,31.271486,hotel
B0L3A5V08W,华雨公寓,100200,柳营路205弄20号4幢,"121.466704,31.270306","121.462155,31.272212",6920,121.462155,31.272212,hotel
B0FFF4IIVP,伊涵公寓,100200,平型关路343号,"121.46333,31.271474","121.458771,31.273371",6920,121.458771,31.273371,hotel
B0I6BORK7O,金庄大酒店(柳营路),100100,柳营路299号,"121.465252,31.268714","121.460699,31.270617",6920,121.460699,31.270617,hotel
B0M6JUF0OY,上海遇适民宿(大宁国际店),100200,平型关路与陈家宅路交叉口南60米,"121.467675,31.264775","121.463130,31.266686",6920,121.46313,31.266686,hotel
B0MGB1VOG6,王季酒店,100100,西藏北路与民和路交叉口西北40米,"121.463361,31.266987","121.458803,31.268886",6920,121.458803,31.268886,hotel
B0M6TR5WZJ,阿满民宿(上海大宁国际商业区东宝兴路地铁站店),100200,西宝兴路与黄山路交叉口西80米,"121.469425,31.266775","121.464885,31.268690",6920,121.464885,31.26869,hotel
B0L0LLAOI6,JinglaiHotelSelection,100100,俞泾港路与平型关路交叉口西南20米,"121.467075,31.266475","121.462528,31.268384",6920,121.462528,31.268384,hotel
B0LBL9RPZI,青年公社,120000|100200,洛川东路与北宝兴路交叉口西120米,"121.464975,31.272175","121.460421,31.274076",6920,121.460421,31.274076,other
B0MGHDT8Z4,格子酒店,100100,平型关路与柳营路交叉口东南20米,"121.466475,31.269025","121.461926,31.270931",6920,121.461926,31.270931,hotel
B00156TH31,最家空间·亿丰时代广场,060102,云台路800号,"121.507269,31.163012","121.502870,31.165086",7416,121.50287,31.165086,mall
B00156D2MV,宝丰生活广场,060102,三林镇上南路3521号d栋106-107,"121.505928,31.155647","121.501525,31.157721",7416,121.501525,31.157721,mall
B0L6N7RW80,网鱼电竞酒店(上海前滩上南路地铁站店),100100,高青路911号宝丰生活广场4层,"121.505928,31.155647","121.501525,31.157721",7416,121.501525,31.157721,hotel
B0FFIXR1CP,亿丰时代广场体验中心(亿丰时代广场店),060102,云台路800号最家空间·亿丰时代广场F1层,"121.507354,31.163797","121.502955,31.165871",7416,121.502955,31.165871,mall
B00155IAL7,维蒂利酒店(上海前滩海阳路店),100100,海阳路1050号,"121.505933,31.158324","121.501529,31.160396",7416,121.501529,31.160396,hotel
B0K64NJC8H,一抹云栖客栈(杨思路高青路地铁站店),100200,三林镇东明路1628号,"121.512182,31.164296","121.507800,31.166384",7416,121.5078,31.166384,hotel
B0L0JCGJQJ,亿丰广场(装修中),060100,书院镇云台路800号亿丰时代广场3楼,"121.50734,31.163795","121.502941,31.165869",7416,121.502941,31.165869,mall
B0I1TKXRCC,逅海酒店管理有限公司,100100|170200,高青路999号,"121.507639,31.15618","121.503242,31.158258",7416,121.503242,31.158258,hotel
B0FFJVVVIK,汇居公寓(高青路店),100200,上南路3521号宝丰生活广场F3层,"121.50608,31.155641","121.501677,31.157715",7416,121.501677,31.157715,hotel
B0FFIAOA1E,玲珑公寓,100200,三林镇洪山路1097号上南山水苑东,"121.504378,31.158455","121.499969,31.160522",7416,121.499969,31.160522,hotel
B0FFLPGYCN,万富轩酒店式服务公寓,100200,万富汇东南门旁(高青路地铁站1号口步行470米),"121.512254,31.162949","121.507873,31.165038",7416,121.507873,31.165038,hotel
B0M6XURVBD,爱尚家民宿(上海浦东新国际博览中心华夏西路地铁站店),100200,东明路与杨思路交叉口南140米,"121.512325,31.163825","121.507944,31.165913",7416,121.507944,31.165913,hotel
B0MUTGKLMC,云海间浦东店公寓(板泉路分店),100100,东明路与板泉路交叉口西80米,"121.512463,31.163036","121.508082,31.165125",7416,121.508082,31.165125,hotel
B0KD6NER27,沪恒公寓(浦东新国际博览中心二店),100200|120302,东明路与杨思路交叉口南100米,"121.512025,31.164275","121.507643,31.166362",7416,121.507643,31.166362,hotel
B0KARRB8ZV,溪雨观·悦己,100200,东明路与海阳路交叉口西北60米,"121.514164,31.160866","121.509789,31.162961",7416,121.509789,31.162961,hotel
B0JU5UFGT0,上海国家会展中心诸光路亚朵X酒店,100100,诸光路851号,"121.310595,31.16979","121.306096,31.171780",5004,121.306096,31.17178,hotel
B0M6FDXTP2,遇见民宿(虹桥机场国家会展中心一店),100200,诸光路与沪青平公路交叉口西南200米,"121.308375,31.170625","121.303881,31.172618",5004,121.303881,31.172618,hotel
B0L2SN4MGF,嘉兴嘉善西塘古镇景区民宿(诸光路分店),100200,诸光路招商虹桥华府-45号楼,"121.308384,31.170611","121.303890,31.172604",5004,121.30389,31.172604,hotel
B0L0GL4GVZ,栖巢,100200,高光路与高泾支路交叉口北260米,"121.311075,31.164725","121.306576,31.166716",5004,121.306576,31.166716,hotel
B0LBRZGV0D,城方公寓,100200|120302,高光路与高泾支路交叉口西120米,"121.309875,31.162825","121.305378,31.164819",5004,121.305378,31.164819,hotel
B0FFIQC1K0,城市便捷酒店(上海国际汽车城同济大学店),100105,曹安公路4908弄186号,"121.203142,31.286764","121.198673,31.288724",3747,121.198673,31.288724,hotel
B0IDUU2541,城市便捷酒店上海国际汽车城同济大学店大堂,100105,曹安公路4908弄186号城市便捷酒店(上海国际汽车城同济大学店),"121.203151,31.286746","121.198682,31.288706",3747,121.198682,31.288706,hotel
B0LR0OO6OU,雅居精品公寓B栋,100200,安虹路299号9幢、13幢雅居精品公寓(安虹路店),"121.198275,31.279975","121.193798,31.281930",3747,121.193798,31.28193,hotel
B0FFJYF7U4,上海亲客民宿,100200,上海浦东新区项文路碧盈苑东门14号,"121.709737,31.046035","121.705397,31.048178",9816,121.705397,31.048178,hotel
B0LAANCEZ9,梅风民宿,100200,名望路与项文路交叉口东南180米,"121.712775,31.046025","121.708432,31.048163",9816,121.708432,31.048163,hotel
B0FFG957EO,上海浦东禹悦汇,060101,沪南公路9968号,"121.738759,31.03948","121.734398,31.041599",10196,121.734398,31.041599,mall
B0IUPHV2IN,禹洲商业广场,120203|060102,沪南公路9968号,"121.738474,31.039546","121.734113,31.041665",10196,121.734113,31.041665,other
B0H2CCS7V9,桔子水晶上海野生动物园酒店,100100,惠南镇听潮南路1号,"121.742655,31.039711","121.738293,31.041829",10196,121.738293,31.041829,hotel
B0L3RRO6A5,上海荷逸·悦居酒店,100100,沪南公路9968号上海浦东禹悦汇F1层,"121.738638,31.039826","121.734277,31.041945",10196,121.734277,31.041945,hotel
B0FFHPQLB8,锦江之星品尚(惠南野生动物园店),100105,惠南镇城南路92号,"121.746335,31.039866","121.741974,31.041983",10196,121.741974,31.041983,hotel
B0MB4C07W6,柏纳酒店(上海野生动物园店),100100,惠南镇沪南公路9830号,"121.737252,31.039947","121.732891,31.042067",10196,121.732891,31.042067,hotel
B0KDZNPYEV,锦江之星风尚酒店(上海浦东新区野生动物园店),100105,上海浦东新区惠南镇南园路39弄1号,"121.746362,31.03927","121.742001,31.041387",10196,121.742001,31.041387,hotel
B0KK55BFK1,华舒·逸酒店(上海惠南野生动物园店),100100,听潮南路96弄,"121.740783,31.035481","121.736422,31.037602",10196,121.736422,31.037602,hotel
B0IBCZBX62,桔子水晶上海野生动物园酒店大堂,100100,惠南镇听潮南路1号桔子水晶上海野生动物园酒店,"121.742597,31.039824","121.738235,31.041942",10196,121.738235,31.041942,hotel
B0FFH2XV8A,上海迪八主题酒店(上海野生动物园店),100100,惠南镇听潮南路107号,"121.741769,31.036429","121.737408,31.038549",10196,121.737408,31.038549,hotel
B0JRFSRVXY,浦天美泊酒店上海国际旅游度假区店大堂,100100,沪南公路与大川公路交叉口东300米,"121.738618,31.039938","121.734257,31.042057",10196,121.734257,31.042057,hotel
B0FFGVNJ1M,柏颂酒店,100103,惠南镇听潮南路88号(近沪南路),"121.740642,31.035822","121.736281,31.037943",10196,121.736281,31.037943,hotel
B0LRLHMPC5,乐居公寓,100200,南园路45号,"121.746208,31.039048","121.741847,31.041165",10196,121.741847,31.041165,hotel
B0L0A5BZTB,锦江之星(上海浦东新区禹洲商务广场店),100105,南园路与园宁路交叉口北100米,"121.746337,31.039264","121.741976,31.041381",10196,121.741976,31.041381,hotel
B0HB2LY3BF,鎏诚魔幻酒店,100100,南园路与园宁路交叉口东北120米,"121.746821,31.039244","121.742460,31.041361",10196,121.74246,31.041361,hotel
B0K3MCPKTO,晴天民宿(上海野生动物园店),100200,听潮南路与惠园路交叉口北100米,"121.741161,31.034688","121.736800,31.036809",10196,121.7368,31.036809,hotel
B0LU4OV50S,晴天公寓(城南路276号),100200,城南路276号,"121.746325,31.038275","121.741964,31.040393",10196,121.741964,31.040393,hotel
B0LBRHJXXI,垚鑫公寓,100200,南园路与园宁路交叉口南300米,"121.745875,31.035675","121.741514,31.037794",10196,121.741514,31.037794,hotel
B0M6XHP0PU,邡阁民宿(南汇及野生动物园二店),100200,沪南公路9968号上海浦东禹悦汇,"121.738675,31.039225","121.734314,31.041344",10196,121.734314,31.041344,hotel
B0KU55RIEQ,锐思特逸致酒店(上海野生动物园店)(暂停营业),100100,惠南镇沪南公路9830号,"121.737258,31.03998","121.732897,31.042100",10196,121.732897,31.0421,hotel
B00155QYJW,万达广场(上海江桥店),060101,金沙江西路1053号靠近万达广场(上海江桥店),"121.32383,31.239692","121.319296,31.241623",5139,121.319296,31.241623,mall
B0FFKQ10L1,嘉璞·轩酒店(国家会展中心江桥万达店),120203|120302|100100,金园一路1398号(金运路地铁站5号口步行210米),"121.315305,31.24028","121.310790,31.242227",5139,121.31079,31.242227,other
B0LGXSCVRX,汉庭酒店(上海国家会展中心金运路店),100100,"金运路409号金运大厦(江桥万达广场对面),近金沙江西路,地铁13号线2号出口对面","121.320175,31.239125","121.315649,31.241063",5139,121.315649,31.241063,hotel
B0FFINDZHX,曙光薇酒店(虹桥机场国家会展中心店),100103,金运路199弄11号,"121.31964,31.237473","121.315116,31.239413",5139,121.315116,31.239413,hotel
B0JKYZEGPZ,万柏酒店(上海虹桥机场国家会展中心店),100100,鹤友路305号,"121.324427,31.235314","121.319892,31.237246",5139,121.319892,31.237246,hotel
B0FFIVBIJN,8090漫居酒店(上海虹桥机场国展中心店),100100,"鹤旋路108号,近金运路,近江桥万达广场","121.318863,31.238473","121.314340,31.240414",5139,121.31434,31.240414,hotel
B00156O9SZ,上海宜聚缘宾馆(上海江桥万达店),100100,江桥镇金园一路1300号,"121.315924,31.242266","121.311407,31.244211",5139,121.311407,31.244211,hotel
B0JG9R78H4,曙光薇酒店上海虹桥枢纽店大堂,100103,金运路199弄11号曙光薇酒店(虹桥机场国家会展中心店),"121.319608,31.237406","121.315084,31.239346",5139,121.315084,31.239346,hotel
B00156GACN,上海得亨宾馆(金运路店),100100,江桥镇金运路515号(金运路地铁站8号口步行120米),"121.320337,31.241875","121.315811,31.243812",5139,121.315811,31.243812,hotel
B0FFFD37LX,酷乐潮玩(上海江桥万达广场店),060100|080300,金沙江西路1051号万达广场(上海江桥店)F2层2072、2071,"121.321881,31.239378","121.317351,31.241313",5139,121.317351,31.241313,mall
B0MGP91EPR,米多时光青年旅舍(虹桥枢纽江桥万达店),100201,万达广场(上海江桥店),"121.324425,31.239425","121.319890,31.241355",5139,121.31989,31.241355,hotel
B0L3KHC8PT,友人居青年旅社(嘉定万达店),100201,万达广场(上海江桥店),"121.322425,31.238475","121.317894,31.240409",5139,121.317894,31.240409,hotel
B0JARGWWSC,恒久又一城酒店,100100,恒久又一城(金运路店)(金运路地铁站8号口步行220米),"121.320674,31.242612","121.316147,31.244548",5139,121.316147,31.244548,hotel
B0J2UYQGQC,尚客程酒店,100100,规划和自然资源局江桥管理所南门旁,"121.320192,31.238545","121.315666,31.240484",5139,121.315666,31.240484,hotel
B0LKNLQOA4,勇鑫公寓,100200,御生活力城东门旁(金运路地铁站8号口步行230米),"121.320175,31.242925","121.315649,31.244862",5139,121.315649,31.244862,hotel
B0M6JCEQTI,PPD驿站,100200,鹤友路与金运路交叉口东南160米,"121.321995,31.234992","121.317465,31.236929",5139,121.317465,31.236929,hotel
B00155QNWL,万达广场(上海周浦店),060101,年家浜路518号,"121.569542,31.114507","121.565324,31.116751",8173,121.565324,31.116751,mall
B0FFFN72I3,麦新格国际酒店(康桥周浦万达迪士尼店),100103,周浦镇上南路7779号,"121.571834,31.118553","121.567619,31.120797",8173,121.567619,31.120797,hotel
B0FFGX7AYX,小上海旅游文化城,060102,周浦镇康沈路1611弄52号3室,"121.577854,31.116543","121.573648,31.118795",8173,121.573648,31.118795,mall
B00155R3RE,汉庭酒店(上海周浦万达广场周浦地铁站店),100105,上南路7768号(近周康路、万达广场),"121.570562,31.117804","121.566345,31.120047",8173,121.566345,31.120047,hotel
B00150B11E,金源商厦(康沈公路),060102,康沈路1106-1618号,"121.575659,31.116935","121.571450,31.119184",8173,121.57145,31.119184,mall
B0IUFCV1CF,网鱼电竞酒店(上海周浦小上海步行街店),100100,周浦镇康沈路1611弄29号301室,"121.577414,31.116017","121.573207,31.118269",8173,121.573207,31.118269,hotel
B0FFFH8WNG,夏洛特精品酒店(上海周浦迪斯尼万达店),100100,周浦镇上南路7775号,"121.570118,31.118106","121.565901,31.120349",8173,121.565901,31.120349,hotel
B001557B0F,金源地下商场(康沈公路店),060102,康沈路1106-1618号金源商厦(康沈公路),"121.575627,31.116948","121.571418,31.119197",8173,121.571418,31.119197,mall
B0JGHKO4PZ,上海云江居酒店(周浦万达广场小上海步行街店),100100,周浦镇康沈路1638号,"121.576583,31.116091","121.572375,31.118342",8173,121.572375,31.118342,hotel
B0FFIBKTX9,易佰酒店(上海周浦万达小上海步行街店),100105,康沈路1588号,"121.575261,31.117706","121.571051,31.119955",8173,121.571051,31.119955,hotel
B00155QISU,悦初百货(小上海旅游文化城时尚休闲街店),060102,康沈路1707号,"121.577854,31.115745","121.573648,31.117997",8173,121.573648,31.117997,mall
B0JGMB8DIK,寓电竞酒店(上海周浦小上海步行街店),100100,川周公路4523号8层,"121.576112,31.119124","121.571903,31.121373",8173,121.571903,31.121373,hotel
B0FFLBF2XR,Yuki勇丞酒店(上海周浦万达广场店),100100,康桥镇上南路7775号与周康路交界处(毗邻万达广场沪南公路),"121.570498,31.118156","121.566281,31.120399",8173,121.566281,31.120399,hotel
B0FFKMSFTA,苏宁百货(上海周浦万达广场店),060102|060304|060306,年家浜路518号万达广场(上海周浦店)1F层,"121.568505,31.114046","121.564285,31.116289",8173,121.564285,31.116289,mall
B0FFK7GTZW,点乐购物广场,060102,周浦镇上南路7877号,"121.572536,31.118871","121.568322,31.121116",8173,121.568322,31.121116,mall
B0FFF2HCY7,素居酒店式公寓(上海周浦万达店),100100,沪南路3467号周浦万达广场A栋海逸阁1楼,"121.568382,31.11401","121.564162,31.116253",8173,121.564162,31.116253,hotel
B0FFH6YVAG,如季精选酒店(周浦万达广场川周公路店),100105,川周公路4505号,"121.576112,31.119126","121.571903,31.121375",8173,121.571903,31.121375,hotel
B0FFF6Z7ZK,湛宏酒店式公寓(上海周浦万达店),100100,年家浜路528号万达B座10层1001,"121.569885,31.114168","121.565668,31.116412",8173,121.565668,31.116412,hotel
B0FFJIKVAG,丰收日·小海鲜·沪上家宴(周浦万达店),100100|050100,年家浜路540号万达广场时尚楼B入口观光电梯直达5楼,"121.569461,31.114061","121.565243,31.116305",8173,121.565243,31.116305,hotel
B0HR644MH3,上海庐居酒店公寓(上海周浦万达广场店),100100,年家浜路518号万达广场上海周浦店6F层,"121.570102,31.114242","121.565885,31.116487",8173,121.565885,31.116487,hotel
B00156ZI92,上海悦俪假日旅店,100200,周浦镇康沈路1556号,"121.575224,31.118273","121.571014,31.120521",8173,121.571014,31.120521,hotel
B0FFGU6RRQ,上海金鹤客房,100200,周浦镇康沈路1542号,"121.575198,31.118571","121.570988,31.120819",8173,121.570988,31.120819,hotel
B001575WYL,浦江之星(上海周浦店),100105,康沈路1611弄29号4层,"121.577838,31.116036","121.573632,31.118288",8173,121.573632,31.118288,hotel
B00157HEQE,上海慧荣时尚宾馆,100100,周浦镇康沈路1566号,"121.575275,31.11799","121.571065,31.120238",8173,121.571065,31.120238,hotel
B0FFFDHF6R,上海90欢乐旅店,100200,康沈路1568号,"121.575246,31.117919","121.571036,31.120167",8173,121.571036,31.120167,hotel
B0L3GRI0U5,橙家酒店(上海周浦地铁站万达广场店),100100,周浦镇上南路7822号,"121.571693,31.118105","121.567478,31.120350",8173,121.567478,31.12035,hotel
B0FFGWQ7EA,上海小上海客房,100200|100100,康沈路1611弄52号小上海旅游文化城F3层,"121.577854,31.116782","121.573648,31.119034",8173,121.573648,31.119034,hotel
B00156NRXR,上海浩友客房(周浦万达广场店),100200,周浦镇上南路7834号(近沪南公路),"121.571999,31.118069","121.567785,31.120314",8173,121.567785,31.120314,hotel
B0KRJO4V2L,奢里酒店公寓(上海周浦万达店),100100,上海浦东新区年家浜路526号C楼1407室,"121.570014,31.114214","121.565797,31.116459",8173,121.565797,31.116459,hotel
B00155QMEX,上海蔓俪宾馆,100100,康沈路1548号2楼,"121.575204,31.118494","121.570994,31.120742",8173,121.570994,31.120742,hotel
B0FFH9Q29J,上海嘉宾酒店式公寓(周浦万达广场店),100100,上海浦东新区年家浜路528号周浦万达广场B楼海韵阁大厦14层,"121.569955,31.114185","121.565738,31.116430",8173,121.565738,31.11643,hotel
B0L3KPBGYL,上海·菲林酒店(周浦万达广场店),100100,周浦镇年家浜路518号万达广场(上海周浦店)C栋1702室,"121.570325,31.114325","121.566108,31.116570",8173,121.566108,31.11657,hotel
B0JRMAONDO,花驿小栈,100200,年家浜路497号周浦地铁站2号口出来对面(万达广场对面),"121.569119,31.113453","121.564901,31.115697",8173,121.564901,31.115697,hotel
B0015572OX,鸿博公寓,100100,周浦镇康沈路1650号,"121.576773,31.115845","121.572566,31.118096",8173,121.572566,31.118096,hotel
B0I065S0O0,修原公寓,120302|100200,周浦镇康沈路1611弄1号3楼(1611弄60号1611弄10号二楼),"121.577319,31.116618","121.573112,31.118869",8173,121.573112,31.118869,other
B00156OB4W,雅倩客房,100200,康沈路1688号,"121.577075,31.115178","121.572868,31.117430",8173,121.572868,31.11743,hotel
B0K6CHXBHY,如家精选酒店上海国际旅游度假区周浦中心店大堂,100105,川周公路4505号如季精选酒店(周浦万达广场川周公路店),"121.576476,31.119122","121.572268,31.121371",8173,121.572268,31.121371,hotel
B00157BQCF,浦欣旅馆,100200,康沈路1620弄24号,"121.575356,31.116666","121.571147,31.118915",8173,121.571147,31.118915,hotel
B00156O9C0,柳园公寓(康沈路),100200,周浦镇康沈路1611弄29号4楼(小上海休闲广场内),"121.577393,31.116019","121.573186,31.118271",8173,121.573186,31.118271,hotel
B0FFIXYUJJ,上海William公寓(年家浜路分店),100100,上海浦东新区年家浜路518号万达广场,"121.569325,31.114625","121.565107,31.116869",8173,121.565107,31.116869,hotel
B0FFFDR079,雅馨阁宾馆,100100,上海浦东新区关岳西路117弄36号,"121.577736,31.118835","121.573530,31.121085",8173,121.57353,31.121085,hotel
B0K0HAD6UZ,上海华悦酒店(周浦万达店),100100,周浦镇沪南公路3467号万达广场A栋1层,"121.568355,31.11461","121.564135,31.116852",8173,121.564135,31.116852,hotel
B0FFFDFH5C,镇北商务公寓,100200,上南路7888号A区3层,"121.57377,31.118462","121.569558,31.120709",8173,121.569558,31.120709,hotel
B0MGVLFR20,上海市维也纳国际酒店,100100,上南路与周康路交叉口东北220米,"121.572225,31.118925","121.568011,31.121170",8173,121.568011,31.12117,hotel
B0FFGUNNCE,煌家公寓,100100,康桥镇周浦上南路7888号2层,"121.57315,31.118388","121.568937,31.120634",8173,121.568937,31.120634,hotel
B0G227W0WP,柏瑞酒店式公寓(上海周浦万达店),100100,周浦镇年家浜路526号1403室,"121.569949,31.114194","121.565732,31.116439",8173,121.565732,31.116439,hotel
B001556M0U,安居客房部(陵园路店),100200,里仁村111号,"121.574884,31.115869","121.570674,31.118118",8173,121.570674,31.118118,hotel
B00157HBUK,长安旅馆(陵园路店),100200,里仁村136-137,"121.574991,31.116388","121.570781,31.118637",8173,121.570781,31.118637,hotel
B00155QNWU,鑫发旅馆(康沈公路),100200,康沈路1568号,"121.575281,31.117898","121.571071,31.120146",8173,121.571071,31.120146,hotel
B0L1UB2TI9,拾光精品民宿(加盟圣蓝苑店),100200,关岳西路与康沈路交叉口东北100米,"121.576413,31.118337","121.572205,31.120586",8173,121.572205,31.120586,hotel
B00157HEQQ,上海亮涛客房,100200,周浦镇里仁11组115号,"121.575825,31.116125","121.571616,31.118375",8173,121.571616,31.118375,hotel
B0GU3LK8D2,襄襄青年公寓,100200,小上海休闲广场西1门旁,"121.577779,31.118629","121.573573,31.120879",8173,121.573573,31.120879,hotel
B0L03RDON9,上海麦新格宾馆(迪士尼周浦万达店)-大堂,100100,上南路与周康路交叉口东180米,"121.571888,31.11857","121.567673,31.120814",8173,121.567673,31.120814,hotel
B0IGK7J042,嘉宝公寓,100200,小上海休闲广场南2门旁,"121.577799,31.118051","121.573593,31.120302",8173,121.573593,31.120302,hotel
B0LDRK454S,风栖民宿(周浦康桥店),100200,周浦镇沪南公路3467号万达广场A栋6层1室,"121.568325,31.114375","121.564105,31.116617",8173,121.564105,31.116617,hotel
B0M60GLQX8,上海橙子民宿,100200,年家浜路518号万达广场(上海周浦店),"121.570775,31.114275","121.566559,31.116521",8173,121.566559,31.116521,hotel
B0LU5KLG9T,呆享美宿(周浦康桥店),100200,关岳路与沪南公路交叉口东北60米,"121.567975,31.115975","121.563754,31.118216",8173,121.563754,31.118216,hotel
B0FFIIUSE0,如家艾扉酒店(上海崇明堡镇中路店),100105,堡镇镇堡镇中路166号,"121.619456,31.536819","121.615222,31.538922",8855,121.615222,31.538922,hotel
B00155QCBQ,格林豪泰酒店(上海堡镇码头师范大学附属正大中学店),100105|011100,堡镇三十五厂路1号,"121.619838,31.535523","121.615604,31.537625",8855,121.615604,31.537625,hotel
B0HD7ZP8BW,派柏·云酒店(环球国际影城堡镇店),100100,堡镇中路147号,"121.619285,31.536965","121.615052,31.539068",8855,121.615052,31.539068,hotel
B00155QCI1,方顺宾馆(工农路),100100,工农路218号,"121.619383,31.538377","121.615149,31.540480",8855,121.615149,31.54048,hotel
B0KBHZIGOS,城市便捷酒店(上海崇明堡镇店),100105,堡镇中路166号,"121.619456,31.536819","121.615222,31.538922",8855,121.615222,31.538922,hotel
B0LDCHMXH6,兔喜驿站,100200,通富路与堡港路交叉口东40米,"121.613925,31.537111","121.609695,31.539218",8855,121.609695,31.539218,hotel
B0FFKT7P74,恒越荣欣广场,060102,曹路镇上川路与金钻路交汇处西南角,"121.676112,31.280868","121.671810,31.282948",9461,121.67181,31.282948,mall
B0IU1S1QZF,恒越荣欣广场5号楼,060100,海容路与金晓路交叉口东北120米,"121.676358,31.280416","121.672055,31.282496",9461,121.672055,31.282496,mall
B0KAOMYAS1,汉庭酒店(上海曹路店),100100,曹路镇上川路2261号,"121.676898,31.283071","121.672594,31.285149",9461,121.672594,31.285149,hotel
B0FFLOENWY,汉庭优佳酒店(上海曹路金融学院店),100100,金钻路828号6号楼,"121.675912,31.279977","121.671610,31.282058",9461,121.67161,31.282058,hotel
B0FFL82Z1T,强廷公寓,100200,顾路中心小学西南门北90米,"121.676625,31.278025","121.672322,31.280106",9461,121.672322,31.280106,hotel
B0FFIYV26K,强廷国际公社,100200,顾路中心小学西南门北80米,"121.676625,31.277975","121.672322,31.280056",9461,121.672322,31.280056,hotel
B0JG1LUNHK,上海暖暖花园公寓,100100|100200,川沙路与民春路交叉口东160米,"121.670891,31.276088","121.666599,31.278180",9461,121.666599,31.27818,hotel
B0LRMLZMU9,华住会(如家快捷酒店上海浦东曹路上川路金融学院店),100100,上川路与金钻路交叉口东北120米,"121.676903,31.28308","121.672599,31.285158",9461,121.672599,31.285158,hotel
B0KU363MUF,逸客公寓,100200,川沙路与民春路交叉口东220米,"121.671471,31.276001","121.667178,31.278092",9461,121.667178,31.278092,hotel
B0L0HRR6Q0,诺瓦城Nova Ark,060100,虹梅南路1789弄10号楼1-4层,"121.428756,31.108719","121.424134,31.110632",6394,121.424134,31.110632,mall
B0FFJCVG17,国和1000,060100,国和路1000号,"121.526437,31.318629","121.522091,31.320688",7688,121.522091,31.320688,mall
B0FFJ089SV,全季酒店(上海五角场市光路店),100100,五角场镇市光路与世界路交叉口133世界广场,"121.524929,31.321146","121.520578,31.323200",7688,121.520578,31.3232,hotel
B0K05UXI6Z,际庭电竞酒店(五角场上海体育大学杨浦校区店),100100,国和路1021号,"121.528117,31.318009","121.523777,31.320073",7688,121.523777,31.320073,hotel
B0K1UUEFY0,汉庭酒店(上海中原路市光路地铁站店),100100,中原路286号(市光路地铁站2号口步行310米),"121.532266,31.320233","121.527939,31.322307",7688,121.527939,31.322307,hotel
B0FFKNRYS9,汉庭酒店(上海五角场市光路店),100105,闸殷路305号,"121.524936,31.326289","121.520585,31.328341",7688,121.520585,31.328341,hotel
B0FFI03QB0,上海思缘商务酒店(长海医院市光路地铁站店),100100,开鲁路460号(市光路地铁站4号口步行380米),"121.530018,31.325019","121.525683,31.327085",7688,121.525683,31.327085,hotel
B0KKV7PXBP,万W馨酒店(上海五角场长海医院店),100100,世界路91弄15、20、25、95号3-4幢,"121.525804,31.319171","121.521456,31.321228",7688,121.521456,31.321228,hotel
B0FFFGHCW4,奥凯精品酒店(长海市光路地铁站店),100100,上海市 杨浦区 世界路135号,"121.525722,31.322704","121.521374,31.324759",7688,121.521374,31.324759,hotel
B0FFHO1UTB,吉泰精品酒店(上海国和路店),100100,国和路1017号,"121.527767,31.317892","121.523426,31.319955",7688,121.523426,31.319955,hotel
B0J2DBS54L,颐居轻奢酒店(五角场店),100100,世界路111号,"121.525893,31.320245","121.521545,31.322302",7688,121.521545,31.322302,hotel
B0I235X71A,城家高级公寓(上海五角场市光路店),100200,市光路635号,"121.52504,31.321352","121.520689,31.323406",7688,121.520689,31.323406,hotel
B00155F3Z9,翔雨时尚宾馆(长海医院店),100100,国和路950号,"121.523745,31.318142","121.519390,31.320194",7688,121.51939,31.320194,hotel
B0FFMA0UY5,新驰公寓,100200,民京路902号,"121.523025,31.322875","121.518668,31.324923",7688,121.518668,31.324923,hotel
B00155QUIM,胜家酒店(闸殷路),100100,世界路,"121.525527,31.326644","121.521178,31.328697",7688,121.521178,31.328697,hotel
B0H2KD8A4Z,魔禾公寓,100200,中原路282号(市光路地铁站2号口步行370米),"121.53277,31.319866","121.528445,31.321941",7688,121.528445,31.321941,hotel
B0H3JH3QCZ,友苏精品公寓,100100,中原路与国和路交叉口北180米,"121.532245,31.319786","121.527918,31.321860",7688,121.527918,31.32186,hotel
B0FFH6LWCU,OK公寓,100200,五角场镇民京路960号金年华街166号,"121.525985,31.322621","121.521637,31.324677",7688,121.521637,31.324677,hotel
B0FFKSKSBC,文祥酒店公寓,100100,中原路209号阳普国和菜市场2楼,"121.531785,31.319157","121.527457,31.321230",7688,121.527457,31.32123,hotel
B0MBG93KEP,宁城路68号公寓,100200|120302,宁城路与市光路交叉口东南120米,"121.522675,31.319725","121.518317,31.321773",7688,121.518317,31.321773,hotel
B0FFG8TS9W,平高广场,060102,九峰路118号(松江体育中心地铁站1号口步行50米),"121.231175,31.01619","121.226762,31.018321",3971,121.226762,31.018321,mall
B0FFG2MPFP,上海松江商城,060100,中山中路188号,"121.234003,31.007328","121.229593,31.009466",3971,121.229593,31.009466,mall
B0FFFYLTCW,全季酒店(上海松江体育中心地铁站店),100105,乐都路301号(松江体育中心地铁站2号口步行310米),"121.230046,31.012987","121.225633,31.015119",3971,121.225633,31.015119,hotel
B0FFKSQ4TK,Zsmart智尚酒店(上海松江体育中心地铁站乐都店),100100,乐都路257号(乐都路汽车站),"121.232976,31.01327","121.228564,31.015404",3971,121.228564,31.015404,hotel
B0LUADP309,悠景酒店(上海松江体育中心地铁站店),100100,岳阳街道人民北路191号2楼,"121.227064,31.012064","121.222648,31.014194",3971,121.222648,31.014194,hotel
B001532E6C,人乐宾馆,100200,中山二路521号,"121.224481,31.009681","121.220063,31.011811",3971,121.220063,31.011811,hotel
B0FFHDAQDU,上海港湾旅馆,100200,岳阳街道人民北路163号(久汇大厦),"121.228203,31.009508","121.223788,31.011641",3971,121.223788,31.011641,hotel
B0FFG3ET19,上海梦巢宾馆(松江体育中心地铁站店),100100|100200,松江乐都路227号(近9号线松江体育中心),"121.233974,31.013454","121.229563,31.015589",3971,121.229563,31.015589,hotel
B0FFH56U0V,上海棉花糖时尚宾馆,100100,人民北路171弄3号光大银行4楼,"121.227775,31.010976","121.223360,31.013108",3971,121.22336,31.013108,hotel
B0IGP7LB2P,魔方公寓(松江人民北路店),100200|120000,人民北路86号,"121.227976,31.011783","121.223561,31.013914",3971,121.223561,31.013914,hotel
B0M6F10SJG,友居公寓(上海松江体育中心地铁站店),100200,松江人民北路88号,"121.227996,31.011775","121.223581,31.013906",3971,121.223581,31.013906,hotel
B00155EJ94,上海金之旅馆,100200,斜桥路45号,"121.2285,31.007408","121.224086,31.009542",3971,121.224086,31.009542,hotel
B0HRDUXI6E,YU空间酒店式公寓,100200,人民北路103号,"121.228361,31.007859","121.223947,31.009993",3971,121.223947,31.009993,hotel
B0JUDN0X1Y,锦江之星(上海松江醉白池地铁站店),100105,人民北路171弄16号(岳阳广场西侧),"121.226824,31.010066","121.222408,31.012197",3971,121.222408,31.012197,hotel
B0IAVXQ9HS,上海恒凯酒店(松江醉白池地铁站店),100100,中山二路与松江人民北路交叉口西南40米,"121.22803,31.009764","121.223615,31.011897",3971,121.223615,31.011897,hotel
B0IRGHAZRH,沐美精品公寓,100200|120000,人民北路92-116号3楼,"121.228017,31.012002","121.223602,31.014133",3971,121.223602,31.014133,hotel
B0IGBCO3GG,梦园公寓,100200,松江信息大楼西门旁,"121.228105,31.012411","121.223690,31.014542",3971,121.22369,31.014542,hotel
B00156R7C6,上海虹祥大酒店,100100,中山中路196弄43号3层(近平高商城、岳庙),"121.233835,31.007997","121.229424,31.010135",3971,121.229424,31.010135,hotel
B0I1OMCX76,开心公寓,100200,松江人民北路与荣乐中路交叉口东南120米,"121.227476,31.015927","121.223060,31.018056",3971,121.22306,31.018056,hotel
B0IATPHPPN,上海妍颐商务宾馆,100100,中山中路218弄7号2楼,"121.232999,31.007329","121.228588,31.009467",3971,121.228588,31.009467,hotel
B0FFFRCTFG,馨都公寓,100200,乐都路348号云间大厦F1层,"121.226837,31.014156","121.222421,31.016285",3971,121.222421,31.016285,hotel
B0L1TA2I77,旭堃公寓,100200,松江人民北路与乐都路交叉口西北80米,"121.226775,31.014025","121.222359,31.016154",3971,121.222359,31.016154,hotel
B0L0AKA9EP,金泽酒店,100100,乐都路与九峰路交叉口西南80米,"121.230174,31.01288","121.225761,31.015012",3971,121.225761,31.015012,hotel
B0LKTUW9Y1,茸城e家,100100,汇泉路与斜桥路交叉口东南40米,"121.226178,31.007252","121.221762,31.009385",3971,121.221762,31.009385,hotel
B0FFHRCH1C,静安大融城,060101,沪太路1111号,"121.427231,31.279852","121.422592,31.281679",6413,121.422592,31.281679,mall
B0015442B3,九百购物中心,060101,华灵路1051-1067号(新沪路口),"121.421313,31.280192","121.416667,31.282013",6413,121.416667,31.282013,mall
B0KRVDBPJP,上海静安大融城亚朵酒店,100100,沪太路1218号,"121.425553,31.278493","121.420912,31.280319",6413,121.420912,31.280319,hotel
B0G0CARN1O,如家酒店·neo(上海沪太路行知路地铁站店),100105,沪太路1049号,"121.42868,31.27659","121.424043,31.278420",6413,121.424043,31.27842,hotel
B0FFF01WRM,美隆生活广场,060102,大华三路81号(大华三路地铁站3号口步行490米),"121.418881,31.275976","121.414233,31.277797",6413,121.414233,31.277797,mall
B0L26ZE4OW,乐巢酒店(上海静安大融城行知路地铁站店),100100,彭浦镇沪太路1186号,"121.426777,31.277647","121.422138,31.279475",6413,121.422138,31.279475,hotel
B0KA5ABKQV,行知公寓(大华三路店),100200,新沪路1208号(大华三路地铁站3号口步行480米),"121.42056,31.276479","121.415914,31.278301",6413,121.415914,31.278301,hotel
B00156O5P3,知心宾馆,100100,华灵路839号,"121.42294,31.279326","121.418296,31.281149",6413,121.418296,31.281149,hotel
B0FFKRXG9Q,唐鋆My Home酒店(上海灵石路大华三路地铁站店),100100,"新沪路1083弄,地铁站大华三路3号口","121.419809,31.276313","121.415162,31.278135",6413,121.415162,31.278135,hotel
B0FFF90HW5,乾鑫假日酒店(上海静安大融城店),100200,沪太路1067号地矿小区,"121.426756,31.278203","121.422117,31.280030",6413,121.422117,31.28003,hotel
B0H025J2T8,如家快捷酒店上海中环沪太路店大堂,100105,沪太路1049号如家酒店·neo(上海沪太路行知路地铁站店),"121.428546,31.276709","121.423909,31.278539",6413,121.423909,31.278539,hotel
B0FFF90HHZ,上海华家白领公寓,100200,大场镇华灵路515(大华三路地铁站2号口旁),"121.423445,31.273512","121.418802,31.275338",6413,121.418802,31.275338,hotel
B0MBAC9LEV,隽尚酒店(行知路店)1228号楼,100100,沪太路1228号,"121.425136,31.278546","121.420494,31.280372",6413,121.420494,31.280372,hotel
B0FFH2PDJP,沪太路逗号公寓(沪太路分店),100200,彭浦镇沪太路1049号,"121.428526,31.27666","121.423889,31.278490",6413,121.423889,31.27849,hotel
B0JD99SOHQ,虎兆公寓,100200|120000,华灵路与怡华苑路交叉口东北120米,"121.423938,31.273297","121.419296,31.275124",6413,121.419296,31.275124,hotel
B0FFHO7OBN,青橙公寓业务接待处,100100,沪太路1051弄1-3号,"121.428825,31.276774","121.424189,31.278604",6413,121.424189,31.278604,hotel
B0FFF90H3A,美宿小家,100200,沪太路1170弄98号2层,"121.426062,31.276715","121.421422,31.278542",6413,121.421422,31.278542,hotel
B0FFL3FMEB,鑫力公寓,100200,大场镇新沪路1188号鑫力生鲜行,"121.420528,31.276045","121.415882,31.277867",6413,121.415882,31.277867,hotel
B0FFIXGEAP,上海大宁国际商业区(沪太路店),120200|060100,彭浦镇沪太路1218号,"121.425797,31.278512","121.421156,31.280338",6413,121.421156,31.280338,other
B0LBRRCJYQ,柚子公寓,100200,华灵路与大华三路交叉口北240米,"121.423375,31.277075","121.418732,31.278899",6413,121.418732,31.278899,hotel
B0L1UN2LMO,柯灵智能民宿酒店,100100,华灵路1051九百购物中心F1层,"121.421158,31.280318","121.416512,31.282139",6413,121.416512,31.282139,hotel
B0MBNXUTOH,yu域舍青年社区,100201,新沪路与大华三路交叉口东北120米,"121.420625,31.276375","121.415979,31.278197",6413,121.415979,31.278197,hotel
B0M69M98HC,瑶欣青年旅舍公寓,100201,华灵路与大华三路交叉口北220米,"121.423725,31.276825","121.419082,31.278650",6413,121.419082,31.27865,hotel
B0J1YKI0A3,柚HOME公寓,100200,大场镇华灵路698号大华集团马路对面停车场里,"121.423358,31.277077","121.418715,31.278901",6413,121.418715,31.278901,hotel
B0IR9CQI70,上海蓝枫叶度假别墅,100100,青浦區漫心酒店南侧280米,"121.296334,31.168625","121.291864,31.170639",4877,121.291864,31.170639,hotel
B0L1Z5MH9U,三棵树马上住墙面焕新(莘松路店),100100,新桥镇莘松路1435弄门面2号,"121.33955,31.092936","121.334993,31.094912",5377,121.334993,31.094912,hotel
B0MB31GNHO,上海亭居酒店管理有限公司,100100,闵松公路与G60沪昆高速出口交叉口东南340米,"121.338925,31.095225","121.334369,31.097201",5377,121.334369,31.097201,hotel
B0GKX5DOBT,GATE M 西岸凤巢,060102,西岸凤巢(龙耀路地铁站1号口步行210米),"121.460353,31.163444","121.455795,31.165385",6781,121.455795,31.165385,mall
B0H02DEHYP,上海西岸美高梅酒店,100100,云锦路688号(龙耀路地铁站4号口步行300米),"121.458105,31.162301","121.453541,31.164237",6781,121.453541,31.164237,hotel
B0KAJUVJSX,Lumina星扬,060100,龙耀路175号(龙耀路地铁站1号口步行270米),"121.461681,31.16162","121.457127,31.163565",6781,121.457127,31.163565,mall
B0G1SA9PXK,上海呈岸酒店(徐汇滨江店),100100,黄石路27号,"121.452123,31.157139","121.447543,31.159065",6781,121.447543,31.159065,hotel
B0JK676FZ1,GATE M 西岸凤巢南区,060102,云锦路701号(云锦路地铁站4号口步行240米),"121.460332,31.163129","121.455774,31.165070",6781,121.455774,31.16507,mall
B0MG0CIFRM,上海西岸美高梅酒店礼宾部,100100,云锦路700号上海国际航空服务中心,"121.458125,31.162325","121.453561,31.164261",6781,121.453561,31.164261,hotel
B0MUS9DXFG,星扬西岸中心商场,060100,云绣路与龙耀路辅路交叉口南40米,"121.462275,31.162325","121.457722,31.164271",6781,121.457722,31.164271,mall
B0G1GZNVI1,汉庭酒店(上海青浦汇金路地铁站店),100100,华科东路172号,"121.147754,31.159019","121.143189,31.160940",3098,121.143189,31.16094,hotel
B0KD77QHAS,尚客优酒店(上海青浦宝龙广场汇金路地铁站店),100100,崧泉路967-1号,"121.15547,31.154624","121.150920,31.156561",3098,121.15092,31.156561,hotel
B0MD2C6V62,上海青浦新城福朋喜来登酒店,100103,华科东路100弄A座(汇金路地铁站2号口步行410米),"121.154604,31.158993","121.150052,31.160926",3098,121.150052,31.160926,hotel
B0FFM5I3PE,静安绿地柒彩里,060102,万航渡路838号(万航渡路康定路口),"121.429593,31.22784","121.424962,31.229693",6535,121.424962,31.229693,mall
B00156EXAI,全季酒店(上海静安寺康定路店),100105,康定路1018号,"121.437231,31.230843","121.432612,31.232705",6535,121.432612,31.232705,hotel
B0IR5GXQM9,如家精选酒店(上海武宁路地铁站安远路店),100105,安远路678号(武宁路地铁站2号口步行440米),"121.434672,31.235302","121.430048,31.237158",6535,121.430048,31.237158,hotel
B0G3OXB42F,上海吉臣维景酒店,100103|050000,万航渡路818号长白山大厦,"121.429675,31.227925","121.425044,31.229778",6535,121.425044,31.229778,hotel
B00156Z7LV,桔子酒店(上海静安寺武宁路地铁站店),100105,余姚路417号3幢(武宁路地铁站4号口步行450米),"121.436291,31.234062","121.431670,31.235921",6535,121.43167,31.235921,hotel
B0FFHITT3W,豪浦广场,060102,长寿路898号(武宁路地铁站1号口步行60米),"121.429654,31.234584","121.425022,31.236434",6535,121.425022,31.236434,mall
B00155N6YW,同济佳苑,100100,康定路君悦静安同济佳苑,"121.437447,31.230266","121.432829,31.232129",6535,121.432829,31.232129,hotel
B00156NPJY,如家商旅酒店(上海武宁路地铁站安远路店),100105,安远路678号(近叶家宅路延平路),"121.434543,31.235257","121.429919,31.237113",6535,121.429919,31.237113,hotel
B0L6K7QOMN,登巴客栈(上海静安寺武宁路地铁站店),100200,武宁南路258号(武宁路地铁站5A口步行250米),"121.434063,31.230085","121.429439,31.231943",6535,121.429439,31.231943,hotel
B0JRU1UTNX,惟凯电竞酒店(上海长寿路武宁路地铁站店),100100,长寿路898号豪浦广场F1层,"121.429595,31.234515","121.424963,31.236365",6535,121.424963,31.236365,hotel
B0J2AC1P6W,上海慢拾光公寓(静安区武宁路地铁站店),100100,均泰丽轩东南门东北100米(武宁路地铁站5A口步行270米),"121.43409,31.233138","121.429465,31.234994",6535,121.429465,31.234994,hotel
B00155L4U3,大众河滨公寓(长寿路1号分店),100100,长寿路888号大众河滨大厦2102室,"121.429991,31.234641","121.425360,31.236491",6535,121.42536,31.236491,hotel
B0KDHMGQYV,YouU悠游电竞酒店(上海长寿路武宁路地铁站店),100100,曹家渡街道万航渡路789号三楼,"121.430813,31.227799","121.426184,31.229653",6535,121.426184,31.229653,hotel
B0LD4NHP6G,上海思雅图酒店(静安区武宁路地铁站店),100100,曹家渡街道余姚路518号3楼,"121.434075,31.233175","121.429450,31.235031",6535,121.42945,31.235031,hotel
B0FFIXN9IH,上海岚泽酒店,100100,曹家渡街道万航渡路677-685号二楼,"121.432704,31.226842","121.428078,31.228699",6535,121.428078,31.228699,hotel
B0JDXOL472,悠然青年旅舍(长寿路地铁站店),100200,武宁南路新宏安大厦480弄20号3楼,"121.431635,31.233423","121.427006,31.235276",6535,121.427006,31.235276,hotel
B0LUBC3FDW,花田悦舍SPA(武定路店),100200,武定路1133号(武定路地铁站1号口步行280米),"121.438541,31.228068","121.433925,31.229933",6535,121.433925,31.229933,hotel
B0LKRS6VA3,同济佳苑公寓酒店(康定路分店),100100,康定路1033号同济佳苑(近静安区人民法院),"121.437567,31.23031","121.432949,31.232173",6535,121.432949,31.232173,hotel
B0FFLHKPZ7,上海珠舎佳公寓,100200,长寿路地铁站5号口1407弄(荣联公寓),"121.432485,31.233324","121.427858,31.235178",6535,121.427858,31.235178,hotel
B0M6F10MK0,一家名宿(长寿路一店),100200,长寿路898号豪浦广场(武宁路地铁站1号口步行180米),"121.429775,31.234675","121.425144,31.236525",6535,121.425144,31.236525,hotel
B0M6T75SKM,姚西的民宿(静安寺店),100200,余姚路与泰州路交叉口东100米,"121.435425,31.233125","121.430803,31.234983",6535,121.430803,31.234983,hotel
B0FFHR9O7W,雅斯酒店(同济佳苑公寓酒店),100100,康定路1033号同济佳苑,"121.437075,31.230325","121.432456,31.232187",6535,121.432456,31.232187,hotel
B0LKMX8DWY,汉庭星空(上海)酒店管理有限公司康定路分公司,100100,康定路与泰州路交叉口东80米,"121.437287,31.230807","121.432668,31.232669",6535,121.432668,31.232669,hotel
B0JD0KUPST,徐家海度假别墅(康定路分店),100100,康定路三鑫花苑(武宁路地铁站5A口步行430米),"121.429849,31.229551","121.425218,31.231403",6535,121.425218,31.231403,hotel
B0J6ASVVUT,豪浦时尚公社,060102|060101,长寿路898号豪浦广场F1层(武宁路地铁站1号口步行80米),"121.429857,31.234324","121.425226,31.236174",6535,121.425226,31.236174,mall
B0FFHRMM6I,JN国际青年公寓,100200,恒森广场东北门旁(昌平路地铁站5号口步行250米),"121.439796,31.234869","121.435182,31.236733",6535,121.435182,31.236733,hotel
B0L3VSHLHF,MUTEGarageShanghai,100100,延平路与昌平路交叉口西北80米,"121.437375,31.233325","121.432756,31.235186",6535,121.432756,31.235186,hotel
B0L39BRBBX,Jessie的民宿(静安寺二店),100200,余姚路与泰州路交叉口东40米,"121.434775,31.233275","121.430152,31.235132",6535,121.430152,31.235132,hotel
B0MGH9UIBJ,简在公寓外卖柜,100200,康定路与延平路交叉口西南100米,"121.438675,31.230725","121.434059,31.232589",6535,121.434059,31.232589,hotel
B0MGD1S0IX,丹丹之家民宿(静安寺店),100200,延平路与安远路交叉口南80米,"121.435975,31.235025","121.431354,31.236883",6535,121.431354,31.236883,hotel
B0L3ASTKOB,SanheGardenJing'anDistriCT,100100,武定路与万春街交叉口东南140米,"121.439825,31.227525","121.435211,31.229393",6535,121.435211,31.229393,hotel
B00156NVSE,上海万象城,060101,吴中路1599号(紫藤路地铁站1号口步行210米),"121.369015,31.170352","121.364395,31.172239",5766,121.364395,31.172239,mall
B0FFHOJC1P,井亭天地生活广场西区,060102,虹泉路1078号井亭天地生活广场F3,"121.373497,31.169875","121.368871,31.171757",5766,121.368871,31.171757,mall
B00155QRWB,井亭天地,060102|060101,虹桥镇虹泉路1078号8栋,"121.373805,31.169975","121.369178,31.171856",5766,121.369178,31.171856,mall
B0FFG74NOC,缤琦广场,060102,银亭路58-60、66号,"121.375675,31.171455","121.371046,31.173334",5766,121.371046,31.173334,mall
B0FFK4LHQT,上海虹桥机场韩国街亚朵酒店,100100,银亭路66号,"121.375535,31.171652","121.370906,31.173531",5766,121.370906,31.173531,hotel
B00155GE1X,井亭Seoul Plaza,060101|061100,虹泉路1000号,"121.37499,31.170496","121.370362,31.172376",5766,121.370362,31.172376,mall
B0FFHOJC1O,井亭天地生活广场东区,060102|060101,虹泉路1078号,"121.374312,31.170147","121.369685,31.172028",5766,121.369685,31.172028,mall
B0FFF661BT,风度国际生活广场,060102,虹桥镇虹泉路1101弄3号,"121.373088,31.169045","121.368462,31.170928",5766,121.368462,31.170928,mall
B0FFLNWV51,上海馨乐庭公寓酒店(虹桥机场韩国街店),100100,虹泉路1101弄3号,"121.373083,31.169047","121.368457,31.170930",5766,121.368457,31.17093,hotel
B0FFIB26BU,虹泉生活广场,060102,金汇南路193号,"121.377317,31.170288","121.372686,31.172166",5766,121.372686,31.172166,mall
B0FFKYGPP6,银廷PLUS酒店,100100,银亭路58号,"121.375754,31.171276","121.371125,31.173155",5766,121.371125,31.173155,hotel
B00155L9F7,吉祥酒店(虹泉路店),100103,虹泉路888号,"121.376011,31.170724","121.371381,31.172603",5766,121.371381,31.172603,hotel
B0MB47ZJ7Z,鲸喜连连酒店(上海虹桥韩国街店),100100,虹泉路1078号井亭天地生活广场东区1楼,"121.374272,31.17018","121.369645,31.172061",5766,121.369645,31.172061,hotel
B0JB1SAFD4,上海虹桥韩国街银亭路宜尚PLUS酒店大堂,100100,银亭路58号银廷PLUS酒店,"121.375497,31.171169","121.370868,31.173048",5766,121.370868,31.173048,hotel
B0I3FZOXHB,帝璟雅致酒店大堂,100100,帝璟雅致酒店(上海韩国街万象城店),"121.372411,31.169588","121.367786,31.171471",5766,121.367786,31.171471,hotel
B0IU1SX7K9,缤琦广场1栋,060102,银亭路58-60、66号缤琦广场,"121.375551,31.171603","121.370922,31.173482",5766,121.370922,31.173482,mall
B0KKUHDZIR,上海帝峻雅致酒店管理有限公司,100100,虹莘路与虹泉路交叉口东北40米,"121.372357,31.169508","121.367732,31.171391",5766,121.367732,31.171391,hotel
B0MBPX2TBM,OUXI(上海吉祥酒店店),100100,银亭路与虹泉路交叉口北60米,"121.375518,31.170763","121.370889,31.172642",5766,121.370889,31.172642,hotel
B0G3JK20BS,吉浦湾,060102,吉浦路与武东路交叉口东北120米,"121.490803,31.305564","121.486332,31.307523",7178,121.486332,31.307523,mall
B00151FAA3,上海粤海万怡酒店,100102,逸仙路328号,"121.486369,31.299662","121.481883,31.301611",7178,121.481883,31.301611,hotel
B0L6ZMRYV3,汉庭酒店(上海江湾镇地铁站店),100100,逸仙路791-801号(江湾镇地铁站5号口步行290米),"121.486409,31.302971","121.481923,31.304918",7178,121.481923,31.304918,hotel
B001523BCE,上海波湖宾馆(财经大学店),100100,吉浦路305-311号,"121.490579,31.304859","121.486108,31.306818",7178,121.486108,31.306818,hotel
B00156O5SL,上海鑫逸宾馆(江湾镇地铁站店),100100|100200,逸仙路488号二楼(江湾镇地铁站5号口步行270米),"121.485667,31.302638","121.481178,31.304583",7178,121.481178,31.304583,hotel
B0H1278P7F,众家亲酒店(丰镇路店),100100,丰镇路3号(江湾镇地铁站7号口步行490米),"121.480908,31.304649","121.476403,31.306580",7178,121.476403,31.30658,hotel
B001514013,上勘院招待所,100200,逸仙路400号(江湾镇地铁站5号口步行490米),"121.486406,31.300729","121.481920,31.302677",7178,121.48192,31.302677,hotel
B0FFK295C4,恬然青舍智能公寓,100200,五角场镇武东路311号如家快捷酒店二楼,"121.491083,31.304221","121.486613,31.306182",7178,121.486613,31.306182,hotel
B0L2V78P0R,星空青年旅舍,100201,逸仙路与万安路交叉口南260米,"121.485175,31.300025","121.480685,31.301970",7178,121.480685,31.30197,hotel
B0FFFDDMPU,大学城公寓(武东路店),100200,吉浦路305号4层,"121.490709,31.304779","121.486238,31.306738",7178,121.486238,31.306738,hotel
B0JD1S1NIK,驿业公寓(暂停营业),100200,逸仙路580号4楼(江湾镇地铁站5号口旁),"121.484705,31.304497","121.480213,31.306439",7178,121.480213,31.306439,hotel
B0FFG1NA4Y,新角里广场,060102|060101,新风路160号,"121.058014,31.108629","121.053456,31.110567",1950,121.053456,31.110567,mall
B0FFGH7PNM,如家酒店·neo(上海青浦朱家角古镇店),100105,朱家角古镇祥凝浜路317号,"121.061199,31.108813","121.056635,31.110745",1950,121.056635,31.110745,hotel
B0L1UM3VAK,桔子酒店(上海青浦朱家角店),100105,朱家角镇祥凝浜路128 号,"121.06454,31.108787","121.059969,31.110714",1950,121.059969,31.110714,hotel
B0K6AZIR6Y,上海锦程酒店(朱家角古镇店),100100,朱家角镇祥凝浜路409号,"121.059149,31.10845","121.054589,31.110386",1950,121.054589,31.110386,hotel
B0K1VHRGPX,鱼电竞酒店(上海青浦朱家角古镇店),100100,"新风路148号二,三,四楼","121.057055,31.108989","121.052499,31.110928",1950,121.052499,31.110928,hotel
B0JAJBYJZG,你好酒店(上海青浦朱家角古镇店),100100,朱家角古镇新风路258弄2号,"121.056731,31.111079","121.052176,31.113018",1950,121.052176,31.113018,hotel
B0FFIAHKSZ,花筑·茶苑精品客栈(上海朱家角古镇店),100200,朱家角大新街59号,"121.054437,31.108014","121.049888,31.109959",1950,121.049888,31.109959,hotel
B0KAS4H53P,上海不舍·江南民宿(朱家角古镇店),100200,朱家角镇漕河街157号,"121.054633,31.109788","121.050083,31.111731",1950,121.050083,31.111731,hotel
B0J31UIS2Z,花筑·东井民宿(朱家角古镇店),100200,东井街4号,"121.057159,31.112328","121.052603,31.114265",1950,121.052603,31.114265,hotel
B0FFFA70C8,清代名宅(朱家角古镇店),100200,朱家角古镇大新街92号,"121.054412,31.108469","121.049863,31.110414",1950,121.049863,31.110414,hotel
B001556TT2,上海淀湖假日酒店(朱家角景区古镇店),100200,朱家角古镇新溪路8号,"121.059989,31.10952","121.055427,31.111454",1950,121.055427,31.111454,hotel
B0FFH57SLT,驿雲精品客栈(上海朱家角店),100200,朱家角镇泗景园路21号,"121.055579,31.110211","121.051027,31.112152",1950,121.051027,31.112152,hotel
B0FFFPGKWA,艺星宾馆(上海朱家角古镇景区店),100100,新风路88弄3号,"121.058256,31.108002","121.053698,31.109940",1950,121.053698,31.10994,hotel
B0FFG83BVU,花筑·蓝莲花开客栈(上海朱家角古镇店),100200,朱家角镇大淀湖居委会南港322号,"121.055421,31.112711","121.050869,31.114651",1950,121.050869,31.114651,hotel
B0FFHCB8ZU,上海漫公馆精致客栈,100200,朱家角古镇漕河街36号,"121.054253,31.107969","121.049704,31.109914",1950,121.049704,31.109914,hotel
B0KGZBYQKQ,上海小桥客栈(朱家角古镇店),100200,朱家角古镇新风路195弄45-50号,"121.055691,31.109834","121.051139,31.111775",1950,121.051139,31.111775,hotel
B0FFG8229F,上海意平旅馆,100200,"朱家角镇新风路195弄43号(慈门街内,红楼酒家对面)","121.055791,31.110241","121.051238,31.112182",1950,121.051238,31.112182,hotel
B00156NPVI,上海东巷旅馆,100200,朱家角镇泗景园弄1号(红楼酒家对面),"121.056241,31.1102","121.051687,31.112140",1950,121.051687,31.11214,hotel
B0JB31B542,珠街阁大酒店宿舍,100100,朱家角镇祥凝浜路 170 号,"121.063551,31.109087","121.058982,31.111015",1950,121.058982,31.111015,hotel
B00156OB2Q,上海朱家角景中阁旅馆,100100|100200,朱家角镇泗景园路23号3楼,"121.055528,31.11024","121.050976,31.112181",1950,121.050976,31.112181,hotel
B0FFF5RZPW,上海角角旅馆,100200,朱家角镇详凝浜路571弄3号,"121.057047,31.107756","121.052492,31.109696",1950,121.052492,31.109696,hotel
B0FFLJGLCS,上海慈门客栈,100200,朱家角镇新风路185弄3号2-3楼,"121.055916,31.109785","121.051363,31.111726",1950,121.051363,31.111726,hotel
B0FFFOP18H,上海艾伊宾馆,100100,朱家角镇新风路135号路西,"121.056871,31.108765","121.052316,31.110705",1950,121.052316,31.110705,hotel
B0KAZ59N2M,隐街小舍,100100,朱家角镇胜利街297号,"121.054906,31.106989","121.050356,31.108933",1950,121.050356,31.108933,hotel
B001570DZD,上海尚都里客栈,100200,朱家角新风路240弄3号,"121.055875,31.111375","121.051322,31.113315",1950,121.051322,31.113315,hotel
B0FFLFBUM3,东井堂客栈,100200,东井街31号,"121.056537,31.112901","121.051982,31.114839",1950,121.051982,31.114839,hotel
B0MUYRS4BF,上海角落客栈(东湖街1号分店),100200,东湖街49弄1-2号,"121.054291,31.10717","121.049742,31.109115",1950,121.049742,31.109115,hotel
B0FFLGUWAL,Young杨度假别墅(人和路分店),100100,人和路42号,"121.057423,31.105141","121.052867,31.107082",1950,121.052867,31.107082,hotel
B0FFMEOM2K,桔子水晶上海五角场酒店,100100,三门路497号(近国权北路),"121.492702,31.311735","121.488238,31.313698",7306,121.488238,31.313698,hotel
B0JG3U0O1J,四季枫林酒店(上海财经大学店),100100,国权北路89号(上海财经大学地铁站5号口步行290米),"121.496362,31.311091","121.491911,31.313065",7306,121.491911,31.313065,hotel
B0KRV7KEJN,爱电竞酒店(上海五角场财经大学地铁站店),100100,高境镇三门路497号3D苑6号楼2楼,"121.492792,31.311863","121.488328,31.313826",7306,121.488328,31.313826,hotel
B0FFJQTR3K,99优选酒店(上海殷高路财经大学地铁站店),100105|100200,青石路21号,"121.49353,31.315945","121.489068,31.317908",7306,121.489068,31.317908,hotel
B0LK9ZA0UL,迷家青年酒店(上海财经大学店),100105,三门路497号4幢2-3楼,"121.493052,31.312127","121.488589,31.314090",7306,121.488589,31.31409,hotel
B0L2B5KDQK,欢乐之家民宿(殷高路地铁站店),100200,国权北路与民府路交叉口北120米,"121.49601,31.316485","121.491557,31.318456",7306,121.491557,31.318456,hotel
B0M6BMGFTF,优远酒店,100100,青石路与秋阳路交叉口东40米,"121.493595,31.31583","121.489133,31.317794",7306,121.489133,31.317794,hotel
B0LBLLHZAX,寓祥公寓,100200,秋阳路与三门路交叉口西北100米,"121.492425,31.312275","121.487959,31.314237",7306,121.487959,31.314237,hotel
B00155QXWQ,新世界休闲生活广场,060102,曹安公路2300弄288号上影国际影城楼下,"121.341913,31.261379","121.337336,31.263266",5395,121.337336,31.263266,mall
B0L1DHTD1Q,维也纳国际酒店(上海国展中心曹安公路店),100103,[],"121.339413,31.26061","121.334842,31.262502",5395,121.334842,31.262502,hotel
B0G3SHVU4X,永和生活广场,060102,江桥镇靖远路699弄77号,"121.335281,31.253724","121.330720,31.255627",5395,121.33072,31.255627,mall
B0FFF5YXJE,全季酒店(上海江桥国展中心嘉怡路地铁站店),100105,江佳路35号,"121.34168,31.257486","121.337104,31.259375",5395,121.337104,31.259375,hotel
B0L6MHR1VD,大圣电竞酒店(国展中心嘉怡路地铁站店),100100,曹安公路2431号,"121.33925,31.260565","121.334679,31.262458",5395,121.334679,31.262458,hotel
B0FFK8W3C5,M·漫酒店(上海虹桥机场临洮路地铁站店),100100,张掖路333号瑞尔大厦1层,"121.33536,31.258362","121.330798,31.260263",5395,121.330798,31.260263,hotel
B0KG37RNMY,江佳时尚酒店(上海国家会展中心店),100100,江佳路江佳菜场2层(嘉怡路地铁站4号口步行270米),"121.343207,31.259154","121.338628,31.261040",5395,121.338628,31.26104,hotel
B0HR0ZTQ3E,如家睿柏·云酒店(上海虹桥国家会展中心江桥店),100105,张掖路50号,"121.338788,31.253239","121.334219,31.255136",5395,121.334219,31.255136,hotel
B0IRGKBDDY,星酒店(上海虹桥国展中心店),100100,曹安公路2300弄76号新世界休闲生活广场,"121.342535,31.261162","121.337957,31.263048",5395,121.337957,31.263048,hotel
B0MANUQUWU,漫心酒店(上海江桥华江公路店),100100,华江路190号,"121.339242,31.253428","121.334672,31.255324",5395,121.334672,31.255324,hotel
B0L1ZSMEG5,洛思酒店,100100,江桥华江路129弄8号楼,"121.343153,31.254465","121.338574,31.256353",5395,121.338574,31.256353,hotel
B0HBNZWJS1,铂悦酒店(上海国家会展中心江桥老街店),100100,江桥镇华江路129号,"121.341809,31.253988","121.337233,31.255879",5395,121.337233,31.255879,hotel
B0FFM9MA40,嗨森酒店(上海虹桥机场国家会展中心店),100100,华江支路189号,"121.338745,31.260274","121.334175,31.262168",5395,121.334175,31.262168,hotel
B0IUPR78TZ,维也纳国际酒店虹桥枢纽店大堂,100103,华江支路与曹安公路交叉口东南80米,"121.339276,31.260552","121.334705,31.262444",5395,121.334705,31.262444,hotel
B0FFFE7ATM,云东阁精品酒店(万达广场华江支路店),100100,华江支路312号,"121.33922,31.258468","121.334649,31.260361",5395,121.334649,31.260361,hotel
