{"id": "B00155LJ5C", "name": "仲盛世界商城", "typecode": "060102", "cell_id": 5886, "wgs_lng": 121.382435, "wgs_lat": 31.109004}
{"id": "B0FFFRG7JJ", "name": "百盛(仲盛世界商城店)", "typecode": "060101|060400", "cell_id": 5886, "wgs_lng": 121.38244, "wgs_lat": 31.109002}
{"id": "B0JGLBBVOF", "name": "莘庄仲盛(仲盛世界商城店)", "typecode": "060000", "cell_id": 5886, "wgs_lng": 121.382932, "wgs_lat": 31.109121}
{"id": "B0KUD98A8W", "name": "奥乐齐(仲盛世界商城)", "typecode": "060400", "cell_id": 5886, "wgs_lng": 121.38252, "wgs_lat": 31.109836}
{"id": "B0JBFNZODD", "name": "联想官方直营店(仲盛店)", "typecode": "060306", "cell_id": 5886, "wgs_lng": 121.382512, "wgs_lat": 31.109371}
{"id": "B0FFI6GPA0", "name": "城市书房(闵行区图书馆店)", "typecode": "061205", "cell_id": 5886, "wgs_lng": 121.384595, "wgs_lat": 31.107437}
{"id": "B0K6LHJKJP", "name": "苏宁易购(莘庄仲盛店)", "typecode": "060304", "cell_id": 5886, "wgs_lng": 121.3829, "wgs_lat": 31.109159}
{"id": "B0FFKTPCVU", "name": "华为智能生活馆•上海仲盛世界商城", "typecode": "060305", "cell_id": 5886, "wgs_lng": 121.381027, "wgs_lat": 31.108864}
{"id": "B0K10HMSC2", "name": "海螺系统门窗(莘朱路店)", "typecode": "060603", "cell_id": 5886, "wgs_lng": 121.379791, "wgs_lat": 31.109419}
{"id": "B0I1CM6SN9", "name": "好特卖HotMaxx(仲盛世界商城百盛店)", "typecode": "061101", "cell_id": 5886, "wgs_lng": 121.382092, "wgs_lat": 31.109042}
{"id": "B0J2JSCPFD", "name": "CHAGEE霸王茶姬(上海莘庄仲盛店)", "typecode": "061200|050700", "cell_id": 5886, "wgs_lng": 121.38292, "wgs_lat": 31.109261}
{"id": "B0LGGR0VTU", "name": "新舟素养(莘庄仲盛校区)", "typecode": "061202|141400", "cell_id": 5886, "wgs_lng": 121.382234, "wgs_lat": 31.109503}
{"id": "B0K1KRPARB", "name": "COLMO智感体验馆(久沅店)", "typecode": "060000", "cell_id": 5886, "wgs_lng": 121.377589, "wgs_lat": 31.103895}
{"id": "B0J1RGPAIR", "name": "周少青设计师女装(富都路解放大厦店)", "typecode": "061100", "cell_id": 5886, "wgs_lng": 121.383955, "wgs_lat": 31.106206}
{"id": "B00155LV2E", "name": "大脚丫(莘建店)", "typecode": "061100", "cell_id": 5886, "wgs_lng": 121.37643, "wgs_lat": 31.110276}
{"id": "B0I355N65X", "name": "彩江南(好世鹿鸣苑店)", "typecode": "060000", "cell_id": 5886, "wgs_lng": 121.380442, "wgs_lat": 31.10858}
{"id": "B0K3UKPJLH", "name": "ALAONI私人定制服装店(仲盛商城店)", "typecode": "061100", "cell_id": 5886, "wgs_lng": 121.382594, "wgs_lat": 31.109153}
{"id": "B0LK5HT60U", "name": "PARKSON 百盛", "typecode": "061100", "cell_id": 5886, "wgs_lng": 121.383139, "wgs_lat": 31.109278}
{"id": "B0FFK09MOH", "name": "花息叶语美容养生连锁机构(莘庄店)", "typecode": "060501|071100", "cell_id": 5886, "wgs_lng": 121.380417, "wgs_lat": 31.108544}
{"id": "B0FFHCS3AA", "name": "阿梁五金建材部(新梅莘苑店)", "typecode": "060603", "cell_id": 5886, "wgs_lng": 121.384366, "wgs_lat": 31.105301}
{"id": "B0J1RLKADN", "name": "彬彬奢侈品回收典当", "typecode": "060000", "cell_id": 5886, "wgs_lng": 121.38168, "wgs_lat": 31.110161}
{"id": "B0HB2PV8IR", "name": "全家便利店(江南苑店)", "typecode": "060200", "cell_id": 5886, "wgs_lng": 121.382185, "wgs_lat": 31.110629}
{"id": "B0LAKCL7XE", "name": "JINS(上海仲盛世界商城店)", "typecode": "061204", "cell_id": 5886, "wgs_lng": 121.382622, "wgs_lat": 31.108633}
{"id": "B0FFHFQLV3", "name": "鲜丰水果(上海莘建路店)", "typecode": "060704", "cell_id": 5886, "wgs_lng": 121.37484, "wgs_lat": 31.109406}
{"id": "B0J2YUPRCH", "name": "TATA木门(上海莘庄百安居店)", "typecode": "061207|060603", "cell_id": 5886, "wgs_lng": 121.381846, "wgs_lat": 31.109356}
{"id": "B0J3TON89I", "name": "科大讯飞AI学习机专卖店(莘庄仲盛店)", "typecode": "060306", "cell_id": 5886, "wgs_lng": 121.382805, "wgs_lat": 31.109424}
{"id": "B0LAV714T7", "name": "凡品ISHENG", "typecode": "061100", "cell_id": 5886, "wgs_lng": 121.380958, "wgs_lat": 31.109004}
{"id": "B0L0Z7FLBZ", "name": "asics(仲盛世界店)", "typecode": "060900", "cell_id": 5886, "wgs_lng": 121.38284, "wgs_lat": 31.108778}
{"id": "B00156F1NE", "name": "丝芙兰Sephora(仲盛世界商城店)", "typecode": "061400", "cell_id": 5886, "wgs_lng": 121.382504, "wgs_lat": 31.108944}
{"id": "B0FFGFAT8F", "name": "华盛五金店(江南苑店)", "typecode": "060603", "cell_id": 5886, "wgs_lng": 121.380113, "wgs_lat": 31.10963}
{"id": "B0H6GO6GYK", "name": "雅丽莎窗帘", "typecode": "060605", "cell_id": 5886, "wgs_lng": 121.374867, "wgs_lat": 31.107979}
{"id": "B0FFF6XL06", "name": "Hotwind热风(仲盛世界商城店)", "typecode": "061101", "cell_id": 5886, "wgs_lng": 121.380962, "wgs_lat": 31.109198}
{"id": "B0J6NSG796", "name": "LAWSON罗森(好世鹿鸣苑店)", "typecode": "060000", "cell_id": 5886, "wgs_lng": 121.380363, "wgs_lat": 31.108838}
{"id": "B0J2F51POU", "name": "玖善(解放大厦3座店)", "typecode": "060000", "cell_id": 5886, "wgs_lng": 121.38434, "wgs_lat": 31.105785}
{"id": "B0LRXZY5YY", "name": "零食很忙(上海闵行莘朱路店)", "typecode": "061200", "cell_id": 5886, "wgs_lng": 121.382447, "wgs_lat": 31.110768}
{"id": "B0HRJKIKGE", "name": "CHANEL(仲盛世界商城店)", "typecode": "061400", "cell_id": 5886, "wgs_lng": 121.382956, "wgs_lat": 31.109488}
{"id": "B0FFF6XB5R", "name": "new balance(仲盛世界商城)", "typecode": "060900", "cell_id": 5886, "wgs_lng": 121.383147, "wgs_lat": 31.108751}
{"id": "B0FFH3MUID", "name": "LILY商务时装(上海仲盛世界商城店)", "typecode": "061101", "cell_id": 5886, "wgs_lng": 121.38253, "wgs_lat": 31.108997}
{"id": "B0FFF6X89Z", "name": "FILA(仲盛世界商城店)", "typecode": "060900", "cell_id": 5886, "wgs_lng": 121.382426, "wgs_lat": 31.108939}
{"id": "B0G2XOT5K1", "name": "BOLON(仲盛世界商城店)", "typecode": "061204", "cell_id": 5886, "wgs_lng": 121.38296, "wgs_lat": 31.109348}
{"id": "B0LGFZPBTD", "name": "宠·焕生宠物生活馆", "typecode": "061211", "cell_id": 5886, "wgs_lng": 121.379875, "wgs_lat": 31.109446}
{"id": "B0FFF6X64U", "name": "balabala巴拉巴拉(仲盛世界商城店)", "typecode": "061207", "cell_id": 5886, "wgs_lng": 121.382416, "wgs_lat": 31.10899}
{"id": "B0IUCR46XP", "name": "花町Huating(名都新城四期店)", "typecode": "061100", "cell_id": 5886, "wgs_lng": 121.383876, "wgs_lat": 31.110494}
{"id": "B0FFLDLAIH", "name": "戴森(仲盛世界商城店)", "typecode": "060300", "cell_id": 5886, "wgs_lng": 121.382981, "wgs_lat": 31.10961}
{"id": "B0FFF6XH7I", "name": "红星眼镜(仲盛世界商城)", "typecode": "061204", "cell_id": 5886, "wgs_lng": 121.382732, "wgs_lat": 31.109522}
{"id": "B00155790I", "name": "江南铝合金门窗(莘朱路店)", "typecode": "060603", "cell_id": 5886, "wgs_lng": 121.380082, "wgs_lat": 31.109509}
{"id": "B0K359Q63T", "name": "HOPESHOW(百盛莘庄店)", "typecode": "061101", "cell_id": 5886, "wgs_lng": 121.383062, "wgs_lat": 31.109131}
{"id": "B0FFIYBLSL", "name": "LOHO眼镜(仲盛世界商城店)", "typecode": "061200", "cell_id": 5886, "wgs_lng": 121.382303, "wgs_lat": 31.108869}
{"id": "B0H6PGLDFS", "name": "半亩花田芳疗SPA(仲盛店)", "typecode": "060501|071100|061400", "cell_id": 5886, "wgs_lng": 121.382719, "wgs_lat": 31.109393}
{"id": "B0FFGW4VFK", "name": "木九十眼镜仲盛世界商城店", "typecode": "061204", "cell_id": 5886, "wgs_lng": 121.382967, "wgs_lat": 31.109761}
{"id": "B00157FHNO", "name": "Kids Land(仲盛店)", "typecode": "061207", "cell_id": 5886, "wgs_lng": 121.382275, "wgs_lat": 31.108988}
{"id": "B0FFHDNAGD", "name": "有家麦田(上海莘建东路店)", "typecode": "061100", "cell_id": 5886, "wgs_lng": 121.376393, "wgs_lat": 31.110256}
{"id": "B0I2POWFIP", "name": "周大生(仲盛世界商城店)", "typecode": "061202", "cell_id": 5886, "wgs_lng": 121.383362, "wgs_lat": 31.109081}
{"id": "B0FFIKF3M6", "name": "欧舒丹(莘庄百盛购物中心店)", "typecode": "061400", "cell_id": 5886, "wgs_lng": 121.383035, "wgs_lat": 31.109448}
{"id": "B0KA2MAN7D", "name": "爱矫健·矫正鞋及定制鞋垫中心(上海闵行仲盛店)", "typecode": "061207", "cell_id": 5886, "wgs_lng": 121.382291, "wgs_lat": 31.108795}
{"id": "B0JBG5MK6H", "name": "DIOR迪奥美妆(上海仲盛店)", "typecode": "061400", "cell_id": 5886, "wgs_lng": 121.382463, "wgs_lat": 31.108697}
{"id": "B0FFHNZMT5", "name": "1001眼镜(仲盛世界商城店)", "typecode": "061204", "cell_id": 5886, "wgs_lng": 121.382949, "wgs_lat": 31.10896}
{"id": "B0FFF9JSLR", "name": "mimosa美睫(都市路店)", "typecode": "071100|060000", "cell_id": 5886, "wgs_lng": 121.384939, "wgs_lat": 31.108532}
{"id": "B0LR77JJ1U", "name": "丝涟床垫(闵行仲盛百货)店", "typecode": "060600", "cell_id": 5886, "wgs_lng": 121.38286, "wgs_lat": 31.109317}
{"id": "B0I2PSD82G", "name": "上海徕禧窗帘布艺", "typecode": "060605", "cell_id": 5886, "wgs_lng": 121.374953, "wgs_lat": 31.108651}
{"id": "B0GUMR7YET", "name": "POP MART泡泡玛特机器人商店(仲盛世界商城店)", "typecode": "061209", "cell_id": 5886, "wgs_lng": 121.383071, "wgs_lat": 31.109594}
{"id": "B0FFJO8K01", "name": "JNBY(仲盛世界商城店)", "typecode": "061101", "cell_id": 5886, "wgs_lng": 121.382885, "wgs_lat": 31.109193}
{"id": "B0IKUH2JFU", "name": "三棵树马上住涂刷服务(沪闵路店)", "typecode": "060603", "cell_id": 5886, "wgs_lng": 121.376057, "wgs_lat": 31.103111}
{"id": "B0FFIPJ4LW", "name": "LANCOME兰蔻(仲盛世界商城店)", "typecode": "061400", "cell_id": 5886, "wgs_lng": 121.382728, "wgs_lat": 31.10953}
{"id": "B0LU27WHI4", "name": "indicia标记(仲盛世界商城店)", "typecode": "060000", "cell_id": 5886, "wgs_lng": 121.382415, "wgs_lat": 31.109007}
{"id": "B001572LNI", "name": "六福珠宝(上海莘庄百盛店)", "typecode": "061202", "cell_id": 5886, "wgs_lng": 121.383274, "wgs_lat": 31.109042}
{"id": "B00155LBX5", "name": "良友超市(新梅莘苑店)", "typecode": "060200", "cell_id": 5886, "wgs_lng": 121.383399, "wgs_lat": 31.105538}
{"id": "B0FFHC9W6P", "name": "英氏YeeHoO(仲盛世界商城店)", "typecode": "061207", "cell_id": 5886, "wgs_lng": 121.382628, "wgs_lat": 31.109054}
{"id": "B0FFF6X9CD", "name": "JACK&JONES(仲盛世界商城店)", "typecode": "061101", "cell_id": 5886, "wgs_lng": 121.38214, "wgs_lat": 31.108572}
{"id": "B0G3X6C6JS", "name": "便利赞(莘朱路店)", "typecode": "060200", "cell_id": 5886, "wgs_lng": 121.38051, "wgs_lat": 31.109664}
{"id": "B0HKXCQHCM", "name": "莘发超市(新珠苑店)", "typecode": "060200", "cell_id": 5886, "wgs_lng": 121.377107, "wgs_lat": 31.110334}
{"id": "B00157AGS9", "name": "思加图(仲盛世界商城店)", "typecode": "061100", "cell_id": 5886, "wgs_lng": 121.383239, "wgs_lat": 31.109727}
{"id": "B0FFF3D8TS", "name": "林清轩(仲盛世界商城)", "typecode": "061400", "cell_id": 5886, "wgs_lng": 121.382731, "wgs_lat": 31.108739}
{"id": "B0FFF2MQ0K", "name": "倩碧(仲盛世界商城店)", "typecode": "061400", "cell_id": 5886, "wgs_lng": 121.3831, "wgs_lat": 31.109646}
{"id": "B0FFJO8JYM", "name": "老凤祥银楼(仲盛世界商城店)", "typecode": "061202", "cell_id": 5886, "wgs_lng": 121.383177, "wgs_lat": 31.109108}
{"id": "B0FFLCQ1A5", "name": "植村秀(仲盛世界商城店)", "typecode": "061400", "cell_id": 5886, "wgs_lng": 121.382765, "wgs_lat": 31.109461}
{"id": "B0HBTO59TN", "name": "泰兰尼斯TARANIS(仲盛世界商城店)", "typecode": "061207", "cell_id": 5886, "wgs_lng": 121.382236, "wgs_lat": 31.10883}
{"id": "B00155GSMT", "name": "万浩烟酒(新珠苑店)", "typecode": "061210", "cell_id": 5886, "wgs_lng": 121.376585, "wgs_lat": 31.11039}
{"id": "B0HGS14VNU", "name": "TOMMY HILFIGER(仲盛世界商城店)", "typecode": "061101", "cell_id": 5886, "wgs_lng": 121.382864, "wgs_lat": 31.109012}
{"id": "B0KDX903XL", "name": "田大妈(新珠苑店)", "typecode": "060703", "cell_id": 5886, "wgs_lng": 121.376658, "wgs_lat": 31.11039}
{"id": "B001557DXK", "name": "快客便利店(中祥·哥德堡店)", "typecode": "060200", "cell_id": 5886, "wgs_lng": 121.380187, "wgs_lat": 31.106083}
{"id": "B0LRUHDBFY", "name": "爱婴室(上海仲盛世界商城SHK1店)", "typecode": "061207", "cell_id": 5886, "wgs_lng": 121.382348, "wgs_lat": 31.109108}
{"id": "B0JB3RE47I", "name": "琦王花生(仲盛世界商城店)", "typecode": "061200", "cell_id": 5886, "wgs_lng": 121.382825, "wgs_lat": 31.108835}
{"id": "B0FFG4MIV5", "name": "外贸天天超特卖(工厂店)", "typecode": "061100", "cell_id": 5886, "wgs_lng": 121.376262, "wgs_lat": 31.110144}
{"id": "B0FFIGU4FO", "name": "百思图(仲盛世界商城店)", "typecode": "061100", "cell_id": 5886, "wgs_lng": 121.383489, "wgs_lat": 31.109227}
{"id": "B0JARR3LKB", "name": "创新窗帘(海星商场莘东路店)", "typecode": "060605", "cell_id": 5886, "wgs_lng": 121.375047, "wgs_lat": 31.108534}
{"id": "B0FFHNZMTA", "name": "L'OREAL巴黎欧莱雅(仲盛世界商城店)", "typecode": "061400", "cell_id": 5886, "wgs_lng": 121.383192, "wgs_lat": 31.109474}
{"id": "B0FFFP6EGP", "name": "阪织屋(仲盛世界商城店)", "typecode": "061100", "cell_id": 5886, "wgs_lng": 121.38273, "wgs_lat": 31.109518}
{"id": "B00156YXCR", "name": "海烟烟行(金燕大厦店)", "typecode": "061210", "cell_id": 5886, "wgs_lng": 121.381846, "wgs_lat": 31.102035}
{"id": "B0LKPYZ0JO", "name": "相遇鲜花(徕禧集市店)", "typecode": "060501", "cell_id": 5886, "wgs_lng": 121.374877, "wgs_lat": 31.10797}
{"id": "B0FFF6XAW9", "name": "MO&Co(仲盛世界商城店)", "typecode": "061101", "cell_id": 5886, "wgs_lng": 121.382262, "wgs_lat": 31.108814}
{"id": "B0FFJO8JYO", "name": "LESS(上海闵行仲盛世界商城店)", "typecode": "061101", "cell_id": 5886, "wgs_lng": 121.382069, "wgs_lat": 31.108847}
{"id": "B0FFFWQE7G", "name": "速写(仲盛世界商城百盛店)", "typecode": "061101", "cell_id": 5886, "wgs_lng": 121.381918, "wgs_lat": 31.108895}
{"id": "B0FFJO8JZZ", "name": "耐克Nike(仲盛世界商城店)", "typecode": "060902", "cell_id": 5886, "wgs_lng": 121.382671, "wgs_lat": 31.109218}
{"id": "B0FFHNTSYC", "name": "名品外贸(江南苑店)", "typecode": "061100", "cell_id": 5886, "wgs_lng": 121.381149, "wgs_lat": 31.109938}
{"id": "B0FFHT5Q4D", "name": "luolai kids(仲盛世界商城店)", "typecode": "060605|061207", "cell_id": 5886, "wgs_lng": 121.381799, "wgs_lat": 31.10889}
{"id": "B00157AD78", "name": "LACOSTE(仲盛世界商城店)", "typecode": "061101", "cell_id": 5886, "wgs_lng": 121.382704, "wgs_lat": 31.108952}
{"id": "B0I1CB19V4", "name": "广燕便利店(江南苑店)", "typecode": "060200", "cell_id": 5886, "wgs_lng": 121.381496, "wgs_lat": 31.110078}
{"id": "B0LB4SFFKW", "name": "安踏(仲盛世界商城店)", "typecode": "060000", "cell_id": 5886, "wgs_lng": 121.382153, "wgs_lat": 31.108983}
{"id": "B0FFIXYSOD", "name": "giordano ladies(仲盛世界商城店)", "typecode": "061101", "cell_id": 5886, "wgs_lng": 121.382056, "wgs_lat": 31.108756}
{"id": "B0FFH5GMO5", "name": "大米社区(莘庄店)", "typecode": "060000", "cell_id": 5886, "wgs_lng": 121.379842, "wgs_lat": 31.10863}
{"id": "B0J0VSXQ5K", "name": "佑娴珠宝(莘庄店)", "typecode": "061202", "cell_id": 5886, "wgs_lng": 121.383947, "wgs_lat": 31.106054}
{"id": "B001579NJB", "name": "SCOFIELD(仲盛世界商城店)", "typecode": "061101", "cell_id": 5886, "wgs_lng": 121.382997, "wgs_lat": 31.109674}
{"id": "B0LR3YBVFL", "name": "乐摩吧(上海闵行仲盛世界商场3F二店)", "typecode": "060000", "cell_id": 5886, "wgs_lng": 121.382168, "wgs_lat": 31.109253}
{"id": "B0K6KR2ENA", "name": "快赣特价超市(莘庄店)", "typecode": "060200", "cell_id": 5886, "wgs_lng": 121.379435, "wgs_lat": 31.109333}
{"id": "B0M6MZTS9O", "name": "吉利阁香烛", "typecode": "061200", "cell_id": 5886, "wgs_lng": 121.374947, "wgs_lat": 31.108035}
{"id": "B0FFF6X7O9", "name": "DR·KONG江博士健康鞋(上海仲盛店)", "typecode": "061207", "cell_id": 5886, "wgs_lng": 121.382392, "wgs_lat": 31.108784}
{"id": "B0FFIRZJBG", "name": "KIEHL'S科颜氏(仲盛世界商城店)", "typecode": "061400", "cell_id": 5886, "wgs_lng": 121.382988, "wgs_lat": 31.109626}
{"id": "B0MBACA4MI", "name": "PIZZERIA(仲盛世界商城店)", "typecode": "061101", "cell_id": 5886, "wgs_lng": 121.38196, "wgs_lat": 31.10865}
{"id": "B0I2P1QE8U", "name": "mu(仲盛世界商城店)", "typecode": "061101", "cell_id": 5886, "wgs_lng": 121.381971, "wgs_lat": 31.109073}
{"id": "B0J3HMCU20", "name": "Flower&say(仲盛世界商城店)", "typecode": "061101", "cell_id": 5886, "wgs_lng": 121.382022, "wgs_lat": 31.108868}
{"id": "B0I17YPXU8", "name": "Samsonite新秀丽(百盛莘庄店)", "typecode": "061104", "cell_id": 5886, "wgs_lng": 121.383413, "wgs_lat": 31.108912}
{"id": "B0LRXU12T0", "name": "ck服装店(莘庄百盛店)", "typecode": "061100", "cell_id": 5886, "wgs_lng": 121.383036, "wgs_lat": 31.108975}
{"id": "B0IUCYNGM0", "name": "华为授权体验店(仲盛世界商城店)", "typecode": "060305", "cell_id": 5886, "wgs_lng": 121.380991, "wgs_lat": 31.108779}
{"id": "B0FFGOH5IA", "name": "资生堂(仲盛世界商城)", "typecode": "061101|061400", "cell_id": 5886, "wgs_lng": 121.382925, "wgs_lat": 31.10943}
{"id": "B0FFHDNA3L", "name": "莘发设计装潢(新珠苑店)", "typecode": "060603|170201", "cell_id": 5886, "wgs_lng": 121.377065, "wgs_lat": 31.110363}
{"id": "B0L3TZ7QY8", "name": "Adidas Young Athelets", "typecode": "060903", "cell_id": 5886, "wgs_lng": 121.382116, "wgs_lat": 31.10905}
{"id": "B0FFHIVY2V", "name": "YPYN一撇一捺(仲盛世界商城店)", "typecode": "061209", "cell_id": 5886, "wgs_lng": 121.382508, "wgs_lat": 31.108678}
{"id": "B0LR3YC06G", "name": "lesenphants", "typecode": "060000", "cell_id": 5886, "wgs_lng": 121.383029, "wgs_lat": 31.108993}
{"id": "B0FFG7H352", "name": "珀莱雅(莘浜路)", "typecode": "061400", "cell_id": 5886, "wgs_lng": 121.375006, "wgs_lat": 31.108605}
{"id": "B0H1MUYZFH", "name": "八马茶业(都市路店)(暂停营业)", "typecode": "061200", "cell_id": 5886, "wgs_lng": 121.384922, "wgs_lat": 31.108563}
{"id": "B0L2L7PITP", "name": "YJMART一家·便利店(龙之梦店)", "typecode": "060200", "cell_id": 5886, "wgs_lng": 121.375035, "wgs_lat": 31.109521}
{"id": "B0J6M9RQMD", "name": "老庙黄金(仲盛世界商城百盛店)", "typecode": "061202", "cell_id": 5886, "wgs_lng": 121.383543, "wgs_lat": 31.109054}
{"id": "B0FFGFUPMC", "name": "正诚综合商店", "typecode": "060400", "cell_id": 5886, "wgs_lng": 121.374995, "wgs_lat": 31.107915}
{"id": "B0J1AM1DYA", "name": "博翡高定生活馆(闵行店)", "typecode": "060000", "cell_id": 5886, "wgs_lng": 121.376861, "wgs_lat": 31.103542}
{"id": "B0I2BHY6M3", "name": "熊发百货(众众家园商业步行街店)", "typecode": "060200|060400", "cell_id": 5886, "wgs_lng": 121.377858, "wgs_lat": 31.110475}
{"id": "B0FFJO8JZL", "name": "LIFE'S CONTRACT(仲盛世界商城店)", "typecode": "060501", "cell_id": 5886, "wgs_lng": 121.383114, "wgs_lat": 31.108664}
{"id": "B0LRFH7XSP", "name": "ROSEALYSSA(仲盛世界商城店)", "typecode": "061100", "cell_id": 5886, "wgs_lng": 121.382387, "wgs_lat": 31.108784}
{"id": "B0LGYU1WYY", "name": "家德仲盛世界商城店", "typecode": "060400", "cell_id": 5886, "wgs_lng": 121.382805, "wgs_lat": 31.109828}
{"id": "B0L0C7ZN5A", "name": "好得睐(莘浜路店)", "typecode": "060000", "cell_id": 5886, "wgs_lng": 121.374962, "wgs_lat": 31.108556}
{"id": "B0LD6AHKXM", "name": "小猿学习机专卖店(闵行仲盛世界店)", "typecode": "060000", "cell_id": 5886, "wgs_lng": 121.38294, "wgs_lat": 31.109528}
{"id": "B0FFJOSI64", "name": "IREMY艾瑞美假发仲盛世界商城1楼14C(星巴克旁边)", "typecode": "061200", "cell_id": 5886, "wgs_lng": 121.382113, "wgs_lat": 31.108453}
{"id": "B0K0NAH5YO", "name": "容若帽饰馆", "typecode": "061100", "cell_id": 5886, "wgs_lng": 121.382844, "wgs_lat": 31.109695}
{"id": "B0LD1K8WDJ", "name": "恐龙生活(仲盛世界商城店)", "typecode": "060000", "cell_id": 5886, "wgs_lng": 121.38254, "wgs_lat": 31.108828}
{"id": "B0FFGY84CF", "name": "海尔专卖店(易购奉新莘庄仲盛广场店)", "typecode": "060000", "cell_id": 5886, "wgs_lng": 121.38209, "wgs_lat": 31.109628}
{"id": "B0LKNUPO37", "name": "亿姿萱(莘浜路店69号7幢1层D3、D4)", "typecode": "061100", "cell_id": 5886, "wgs_lng": 121.374735, "wgs_lat": 31.107934}
{"id": "B0J0NUFOWS", "name": "松耳照明(邻里苑店)", "typecode": "060000", "cell_id": 5886, "wgs_lng": 121.375238, "wgs_lat": 31.102714}
{"id": "B0GKNRAXY0", "name": "易捷便利店(沪闵公路店)", "typecode": "060200", "cell_id": 5886, "wgs_lng": 121.377917, "wgs_lat": 31.103133}
{"id": "B0FFI0R0BF", "name": "SKECHERS Kids(仲盛世界商城店)", "typecode": "061207", "cell_id": 5886, "wgs_lng": 121.382692, "wgs_lat": 31.109137}
{"id": "B0LR2N4BW1", "name": "Calvin Klein(仲盛世界商城店)", "typecode": "061100", "cell_id": 5886, "wgs_lng": 121.383139, "wgs_lat": 31.109727}
{"id": "B0ID77KOPW", "name": "军星酒坊(莘朱路店)", "typecode": "061210", "cell_id": 5886, "wgs_lng": 121.379729, "wgs_lat": 31.109352}
{"id": "B0L0MLAL0P", "name": "潘多拉(仲盛店)", "typecode": "061202", "cell_id": 5886, "wgs_lng": 121.382896, "wgs_lat": 31.109258}
{"id": "B0FFJGIINJ", "name": "海信电视RGBMiniLED(仲盛苏宁)", "typecode": "060300", "cell_id": 5886, "wgs_lng": 121.382775, "wgs_lat": 31.109157}
{"id": "B0I0ZD7258", "name": "水星STARZ HOME(仲盛世界商城店)", "typecode": "060605", "cell_id": 5886, "wgs_lng": 121.383139, "wgs_lat": 31.108878}
{"id": "B0LKD4MDHE", "name": "宠一宠宠物用品店", "typecode": "061211", "cell_id": 5886, "wgs_lng": 121.379792, "wgs_lat": 31.10938}
{"id": "B0FFH92Q92", "name": "好世鹿鸣苑菜市场07号门面房", "typecode": "060000", "cell_id": 5886, "wgs_lng": 121.380092, "wgs_lat": 31.10913}
{"id": "B0KUNZK8BR", "name": "韦达便利店", "typecode": "060200", "cell_id": 5886, "wgs_lng": 121.37944, "wgs_lat": 31.109474}
{"id": "B0KDMP3VSN", "name": "莘苑百货(新梅莘苑店)", "typecode": "060200", "cell_id": 5886, "wgs_lng": 121.383369, "wgs_lat": 31.105493}
{"id": "B0LRVUKLC1", "name": "POLOWALK(仲盛世界商城店)", "typecode": "061200", "cell_id": 5886, "wgs_lng": 121.382932, "wgs_lat": 31.109121}
{"id": "B0L1Z7O3NG", "name": "亨得利眼镜(仲盛世界商城店)", "typecode": "061204", "cell_id": 5886, "wgs_lng": 121.382387, "wgs_lat": 31.109146}
{"id": "B0KAPSA7UL", "name": "宝成卫浴(江南苑店)", "typecode": "060604", "cell_id": 5886, "wgs_lng": 121.380147, "wgs_lat": 31.109527}
{"id": "B0FFHU4S4Q", "name": "玖姿(仲盛世界商城店)", "typecode": "061100", "cell_id": 5886, "wgs_lng": 121.383206, "wgs_lat": 31.109563}
{"id": "B0FFJO8K07", "name": "太平鸟童装(仲盛世界商城店)", "typecode": "061100", "cell_id": 5886, "wgs_lng": 121.382228, "wgs_lat": 31.109208}
{"id": "B0L0R63JOY", "name": "小象超市(沪闵路站)", "typecode": "060200", "cell_id": 5886, "wgs_lng": 121.376246, "wgs_lat": 31.103286}
{"id": "B0KRM6SEPZ", "name": "樊登书店(莘庄百盛购物中心店)", "typecode": "061205", "cell_id": 5886, "wgs_lng": 121.383168, "wgs_lat": 31.108466}
{"id": "B0I24HI4KA", "name": "卡西欧(仲盛世界商城店)", "typecode": "061203", "cell_id": 5886, "wgs_lng": 121.383268, "wgs_lat": 31.109253}
{"id": "B0L33A9DBF", "name": "K1pet(仲盛世界商城店)", "typecode": "061101", "cell_id": 5886, "wgs_lng": 121.383011, "wgs_lat": 31.108246}
{"id": "B0KKRHNXFC", "name": "FILA KIDS(仲盛世界商城店)", "typecode": "060000", "cell_id": 5886, "wgs_lng": 121.383039, "wgs_lat": 31.109478}
{"id": "B0K35Z6CJN", "name": "HIPANDA(莘庄仲盛世界商城店)", "typecode": "061101", "cell_id": 5886, "wgs_lng": 121.382783, "wgs_lat": 31.109726}
{"id": "B0L2CUHSPX", "name": "Kwei Min Ling", "typecode": "061100", "cell_id": 5886, "wgs_lng": 121.382435, "wgs_lat": 31.109004}
{"id": "B0FFFDHV7T", "name": "BeLLE 百丽(仲盛世界商城百盛店)", "typecode": "061102", "cell_id": 5886, "wgs_lng": 121.383239, "wgs_lat": 31.108828}
{"id": "B0FFL1RJWB", "name": "SICARLO(仲盛世界商城)", "typecode": "061100", "cell_id": 5886, "wgs_lng": 121.381668, "wgs_lat": 31.108914}
{"id": "B0L3A7WEE2", "name": "道生生家居(上海)有限公司", "typecode": "060000", "cell_id": 5886, "wgs_lng": 121.376929, "wgs_lat": 31.103527}
{"id": "B0FFJO8JZV", "name": "Nike YOUNG ATHLETES(仲盛世界商城店)", "typecode": "060902", "cell_id": 5886, "wgs_lng": 121.3834, "wgs_lat": 31.109559}
{"id": "B0FFI8Z27O", "name": "阿芙·就是精油!(仲盛世界商城)", "typecode": "061400", "cell_id": 5886, "wgs_lng": 121.382923, "wgs_lat": 31.109502}
{"id": "B0M65HIPHP", "name": "莘海农贸市场", "typecode": "060703", "cell_id": 5886, "wgs_lng": 121.374647, "wgs_lat": 31.106336}
{"id": "B0J041XTIM", "name": "饰桓建材(邻里苑商务楼店)", "typecode": "060603", "cell_id": 5886, "wgs_lng": 121.377345, "wgs_lat": 31.104121}
{"id": "B0L3TZ7YAK", "name": "lremy", "typecode": "061200", "cell_id": 5886, "wgs_lng": 121.382188, "wgs_lat": 31.108605}
{"id": "B0FFJO8JYR", "name": "天美意(仲盛世界商城)", "typecode": "061102", "cell_id": 5886, "wgs_lng": 121.383319, "wgs_lat": 31.108904}
{"id": "B0LKSMHBQH", "name": "茵曼(仲盛世界商城店)", "typecode": "061200", "cell_id": 5886, "wgs_lng": 121.383386, "wgs_lat": 31.109186}
{"id": "B0LGHHTLER", "name": "Mini Peace(仲盛世界商城店)", "typecode": "061207", "cell_id": 5886, "wgs_lng": 121.382157, "wgs_lat": 31.108825}
{"id": "B0M6B7HK2S", "name": "秀烨女装店", "typecode": "061100", "cell_id": 5886, "wgs_lng": 121.38348, "wgs_lat": 31.109283}
{"id": "B0K1KLJ40S", "name": "开城新村超市", "typecode": "060200", "cell_id": 5886, "wgs_lng": 121.37709, "wgs_lat": 31.109597}
{"id": "B0L3TZ85LQ", "name": "播KIDS", "typecode": "061207", "cell_id": 5886, "wgs_lng": 121.382887, "wgs_lat": 31.10926}
{"id": "B0LUHXI1GH", "name": "罗珂迪(仲盛世界商城店)", "typecode": "061100", "cell_id": 5886, "wgs_lng": 121.38244, "wgs_lat": 31.109028}
{"id": "B0M6B7HK2S", "name": "秀烨女装店", "typecode": "061100", "cell_id": 5886, "wgs_lng": 121.38348, "wgs_lat": 31.109283}
{"id": "B0K1KLJ40S", "name": "开城新村超市", "typecode": "060200", "cell_id": 5886, "wgs_lng": 121.37709, "wgs_lat": 31.109597}
{"id": "B0L3TZ85LQ", "name": "播KIDS", "typecode": "061207", "cell_id": 5886, "wgs_lng": 121.382887, "wgs_lat": 31.10926}
{"id": "B0LUHXI1GH", "name": "罗珂迪(仲盛世界商城店)", "typecode": "061100", "cell_id": 5886, "wgs_lng": 121.38244, "wgs_lat": 31.109028}
{"id": "B0MGSZLRVJ", "name": "Conissy", "typecode": "061101", "cell_id": 5886, "wgs_lng": 121.383278, "wgs_lat": 31.109273}
{"id": "B0M62NT4QN", "name": "人久裕方服装店", "typecode": "061200", "cell_id": 5886, "wgs_lng": 121.374986, "wgs_lat": 31.108625}
{"id": "B001558EZD", "name": "众众家园商业步行街", "typecode": "061001", "cell_id": 5887, "wgs_lng": 121.378733, "wgs_lat": 31.11176}
{"id": "B0FFGAS3P2", "name": "联想客户服务中心(百应碧秀路店)", "typecode": "060306|071200", "cell_id": 5887, "wgs_lng": 121.379939, "wgs_lat": 31.115158}
{"id": "B0KG3D7VIJ", "name": "CAMP坎普自行车上海闵行旗舰店", "typecode": "060000", "cell_id": 5887, "wgs_lng": 121.376559, "wgs_lat": 31.118758}
{"id": "B0H29M58H4", "name": "春花中古屋二手奢侈品寄卖(莘庄店)", "typecode": "061300", "cell_id": 5887, "wgs_lng": 121.378547, "wgs_lat": 31.111401}
{"id": "B0HD3HP4PS", "name": "中国联通(莘朱路营业厅)", "typecode": "060305|070604", "cell_id": 5887, "wgs_lng": 121.384963, "wgs_lat": 31.111534}
{"id": "B0G2PSI3WT", "name": "八马茶业(莘庄店)", "typecode": "061200", "cell_id": 5887, "wgs_lng": 121.379956, "wgs_lat": 31.115228}
{"id": "B0FFM5Z74J", "name": "LAWSON罗森(莘建东路店)", "typecode": "060200", "cell_id": 5887, "wgs_lng": 121.380653, "wgs_lat": 31.114619}
{"id": "B0IGHZCKYF", "name": "乔治拿帛利高级定制西服(中国银行莘庄支行店)", "typecode": "061100", "cell_id": 5887, "wgs_lng": 121.382539, "wgs_lat": 31.117027}
{"id": "B0KKCSMS2F", "name": "超视立远近一体镜专业定制中心(闵行店)", "typecode": "061204", "cell_id": 5887, "wgs_lng": 121.384884, "wgs_lat": 31.111061}
{"id": "B001537387", "name": "莘庄菜市场", "typecode": "060705", "cell_id": 5887, "wgs_lng": 121.375969, "wgs_lat": 31.11891}
{"id": "B0K3CAZ1C4", "name": "愈见·疗愈SPA·采耳养生空间", "typecode": "060000", "cell_id": 5887, "wgs_lng": 121.37816, "wgs_lat": 31.11166}
{"id": "B0FFG4E5TU", "name": "全家便利店(莘建东路店)", "typecode": "060200", "cell_id": 5887, "wgs_lng": 121.382043, "wgs_lat": 31.11762}
{"id": "B0I33RVXK8", "name": "MILAIS米莱健康美丽(莘朱路店)", "typecode": "071100|071400|061100", "cell_id": 5887, "wgs_lng": 121.384373, "wgs_lat": 31.110863}
{"id": "B0HKURY59M", "name": "COLINE珂霖美肤抗衰中心", "typecode": "061100|071100", "cell_id": 5887, "wgs_lng": 121.383889, "wgs_lat": 31.112525}
{"id": "B0HAV47KOH", "name": "RELX悦刻专卖店(免费闪送)", "typecode": "061200", "cell_id": 5887, "wgs_lng": 121.378443, "wgs_lat": 31.112479}
{"id": "B0I1V6PRCE", "name": "一代眼镜(南方友谊店)", "typecode": "061204", "cell_id": 5887, "wgs_lng": 121.376227, "wgs_lat": 31.114739}
{"id": "B0K1SZXEGG", "name": "美利达自行车(水清路店)", "typecode": "061208", "cell_id": 5887, "wgs_lng": 121.376658, "wgs_lat": 31.118803}
{"id": "B001557IOS", "name": "LAWSON罗森(莘朱路店)", "typecode": "060200", "cell_id": 5887, "wgs_lng": 121.384562, "wgs_lat": 31.111434}
{"id": "B0FFLF0NYM", "name": "崽崽の家宠物生活馆(众众家园北区店)", "typecode": "061211|060502", "cell_id": 5887, "wgs_lng": 121.377178, "wgs_lat": 31.111981}
{"id": "B0L04HX4PG", "name": "茧太太蚕丝羽绒被工厂店", "typecode": "060605", "cell_id": 5887, "wgs_lng": 121.377834, "wgs_lat": 31.111819}
{"id": "B0L15U140P", "name": "倾心花坊(莘庄站店)", "typecode": "060501", "cell_id": 5887, "wgs_lng": 121.381758, "wgs_lat": 31.11572}
{"id": "B00155GP32", "name": "一帆手机数码精品店", "typecode": "060305", "cell_id": 5887, "wgs_lng": 121.376763, "wgs_lat": 31.11727}
{"id": "B00154D85P", "name": "LAWSON罗森(水清二村店)", "typecode": "060200", "cell_id": 5887, "wgs_lng": 121.376362, "wgs_lat": 31.117881}
{"id": "B0KKPSYT02", "name": "东方麒麟·潘多拉SALON(莘庄北广场店)", "typecode": "061100", "cell_id": 5887, "wgs_lng": 121.378203, "wgs_lat": 31.112201}
{"id": "B0LGZAV33U", "name": "汇當奢侈品黄金回收抵押闵行店", "typecode": "060000", "cell_id": 5887, "wgs_lng": 121.382002, "wgs_lat": 31.116838}
{"id": "B0HRGCAN60", "name": "从前有只猫.撸猫(莘梓苑店)", "typecode": "061211", "cell_id": 5887, "wgs_lng": 121.383649, "wgs_lat": 31.113189}
{"id": "B0LRXZY5YY", "name": "零食很忙(上海闵行莘朱路店)", "typecode": "061200", "cell_id": 5887, "wgs_lng": 121.382447, "wgs_lat": 31.110768}
{"id": "B0FFI2KKA8", "name": "裕臻茶馆(莘庄店)", "typecode": "050600|061200", "cell_id": 5887, "wgs_lng": 121.38191, "wgs_lat": 31.117624}
{"id": "B0M69CC7HJ", "name": "椿田熟成茶行(上海莘庄天荟店)", "typecode": "061200", "cell_id": 5887, "wgs_lng": 121.38252, "wgs_lat": 31.111679}
{"id": "B00155G1LZ", "name": "快客便利店(碧泉店)", "typecode": "060200", "cell_id": 5887, "wgs_lng": 121.378148, "wgs_lat": 31.112907}
{"id": "B0FFHYL6FD", "name": "永葡酒窖", "typecode": "061210", "cell_id": 5887, "wgs_lng": 121.381913, "wgs_lat": 31.117505}
{"id": "B0FFIYBIT8", "name": "未晚鲜花店", "typecode": "060501", "cell_id": 5887, "wgs_lng": 121.377617, "wgs_lat": 31.112477}
{"id": "B0015700OZ", "name": "小吴五金店(庙泾路)", "typecode": "060603", "cell_id": 5887, "wgs_lng": 121.376455, "wgs_lat": 31.118324}
{"id": "B0L2MHYT96", "name": "清美鲜家(庙泾路店)", "typecode": "060000", "cell_id": 5887, "wgs_lng": 121.375412, "wgs_lat": 31.118125}
{"id": "B00155Q9FG", "name": "宝岛眼镜(庙泾路店)", "typecode": "061204", "cell_id": 5887, "wgs_lng": 121.375533, "wgs_lat": 31.118181}
{"id": "B001556S82", "name": "大庄五金建材店(水清三邨公寓店)", "typecode": "060603", "cell_id": 5887, "wgs_lng": 121.376058, "wgs_lat": 31.117659}
{"id": "B0HD7APE4P", "name": "悦刻RELX电子烟(闵行区水清路专卖店)", "typecode": "061200", "cell_id": 5887, "wgs_lng": 121.375937, "wgs_lat": 31.117812}
{"id": "B00157002S", "name": "爱森优选(庙泾店)", "typecode": "060703|060200", "cell_id": 5887, "wgs_lng": 121.375258, "wgs_lat": 31.118067}
{"id": "B0FFKXZLY0", "name": "老裁缝(水清路店)", "typecode": "060000", "cell_id": 5887, "wgs_lng": 121.375953, "wgs_lat": 31.117815}
{"id": "B00157A1IN", "name": "简爱服饰(水清路店)", "typecode": "061100", "cell_id": 5887, "wgs_lng": 121.376161, "wgs_lat": 31.117474}
{"id": "B0M6ULR542", "name": "大金空调工厂店", "typecode": "060300", "cell_id": 5887, "wgs_lng": 121.38259, "wgs_lat": 31.111477}
{"id": "B00156F5QW", "name": "易盛客(水清三邨公寓店)", "typecode": "061210|060400", "cell_id": 5887, "wgs_lng": 121.374787, "wgs_lat": 31.117826}
{"id": "B0I0GLHWPX", "name": "凯德龙之梦购物中心接送点(凯德龙之梦店)", "typecode": "060000", "cell_id": 5887, "wgs_lng": 121.37447, "wgs_lat": 31.110684}
{"id": "B0L6JZTT2B", "name": "台铃电动车(庙泾路店)", "typecode": "061208", "cell_id": 5887, "wgs_lng": 121.374719, "wgs_lat": 31.11778}
{"id": "B0FFHH3JGT", "name": "沁莲便利店", "typecode": "060200", "cell_id": 5887, "wgs_lng": 121.377571, "wgs_lat": 31.11717}
{"id": "B0LBF1VV8F", "name": "U+优佳美发工作室", "typecode": "060000", "cell_id": 5887, "wgs_lng": 121.378165, "wgs_lat": 31.112968}
{"id": "B0GUYX4RUE", "name": "老三水果大卖场(水清二村店)", "typecode": "060704", "cell_id": 5887, "wgs_lng": 121.376259, "wgs_lat": 31.118295}
{"id": "B0LAKRLOCL", "name": "黑骑士部落(水清路店)", "typecode": "061208", "cell_id": 5887, "wgs_lng": 121.375143, "wgs_lat": 31.119271}
{"id": "B001572X8F", "name": "上好眼镜(莘梓苑店)", "typecode": "061204", "cell_id": 5887, "wgs_lng": 121.38509, "wgs_lat": 31.111575}
{"id": "B00154D5IL", "name": "时代文具(雅致路店)", "typecode": "060800", "cell_id": 5887, "wgs_lng": 121.377592, "wgs_lat": 31.117184}
{"id": "B0M6HSA4L8", "name": "DRUNKBAKER(上海莘庄天荟广场店)", "typecode": "061101", "cell_id": 5887, "wgs_lng": 121.382657, "wgs_lat": 31.111787}
{"id": "B00155EIGK", "name": "捷强烟酒专卖店(庙泾路店)", "typecode": "061210", "cell_id": 5887, "wgs_lng": 121.375546, "wgs_lat": 31.118188}
{"id": "B0HRD7Y59F", "name": "玉琬堂大连海参直营店", "typecode": "060706", "cell_id": 5887, "wgs_lng": 121.376035, "wgs_lat": 31.11763}
{"id": "B0JUAPOE3U", "name": "乐美超市(众众家园店)", "typecode": "060200", "cell_id": 5887, "wgs_lng": 121.378736, "wgs_lat": 31.112715}
{"id": "B0J0LAO2X0", "name": "飞牛便利招英百货超市(TODTOWN天荟悦麓店)", "typecode": "060200", "cell_id": 5887, "wgs_lng": 121.383646, "wgs_lat": 31.112904}
{"id": "B0G3ZBN8NT", "name": "尉莱超市(绿地科技岛广场店)", "typecode": "060400", "cell_id": 5887, "wgs_lng": 121.38216, "wgs_lat": 31.117016}
{"id": "B0I1X5MNFX", "name": "阿吉豆(上海莘庄地铁站店)", "typecode": "061209", "cell_id": 5887, "wgs_lng": 121.380876, "wgs_lat": 31.113257}
{"id": "B0JD3R3DLQ", "name": "寻味新疆(水清一村店)", "typecode": "060000", "cell_id": 5887, "wgs_lng": 121.37626, "wgs_lat": 31.117359}
{"id": "B0FFFRN3G3", "name": "Sunshine女装集合店(莘朱路店)", "typecode": "061100", "cell_id": 5887, "wgs_lng": 121.384912, "wgs_lat": 31.111498}
{"id": "B0KDCLSJSG", "name": "明图造型护肤(庙泾店)", "typecode": "071100|060000", "cell_id": 5887, "wgs_lng": 121.37456, "wgs_lat": 31.117719}
{"id": "B00157HY1F", "name": "莘韵琴行·乐器维修", "typecode": "141400|061200", "cell_id": 5887, "wgs_lng": 121.378267, "wgs_lat": 31.111213}
{"id": "B0J6G5MBFL", "name": "缘起鲜花店(东苑利景花苑店)", "typecode": "060000", "cell_id": 5887, "wgs_lng": 121.384933, "wgs_lat": 31.115819}
{"id": "B0M6FCZJOK", "name": "天真蓝照相馆(TODTOWN天荟店)", "typecode": "061200", "cell_id": 5887, "wgs_lng": 121.38296, "wgs_lat": 31.111092}
{"id": "B0M6ULRCNS", "name": "威能采暖(上海)旗舰店", "typecode": "060600", "cell_id": 5887, "wgs_lng": 121.38249, "wgs_lat": 31.111177}
{"id": "B0GD05995L", "name": "Mr L nail美甲美睫(水清路店)", "typecode": "071100|060000", "cell_id": 5887, "wgs_lng": 121.376427, "wgs_lat": 31.117061}
{"id": "B0GKHL2ZNP", "name": "清美鲜家庙泾路店", "typecode": "060703", "cell_id": 5887, "wgs_lng": 121.376372, "wgs_lat": 31.11829}
{"id": "B0MA45UD09", "name": "衣布坊服饰", "typecode": "061100", "cell_id": 5887, "wgs_lng": 121.378239, "wgs_lat": 31.112231}
{"id": "B0FFFWQ1OO", "name": "上海热沛外贸休闲服装(众众家园店)", "typecode": "061100", "cell_id": 5887, "wgs_lng": 121.378256, "wgs_lat": 31.11302}
{"id": "B0015702U1", "name": "意氏黄山茶庄(广通路店)", "typecode": "061200", "cell_id": 5887, "wgs_lng": 121.382091, "wgs_lat": 31.117037}
{"id": "B00156YVL9", "name": "万角依坊(水清路店)", "typecode": "061100", "cell_id": 5887, "wgs_lng": 121.377003, "wgs_lat": 31.11695}
{"id": "B0FFF5G43Q", "name": "凡凡成衣", "typecode": "061100", "cell_id": 5887, "wgs_lng": 121.376849, "wgs_lat": 31.117153}
{"id": "B0FFK10VK9", "name": "万衡装饰(水清三邨公寓店)", "typecode": "060603|170201|070000", "cell_id": 5887, "wgs_lng": 121.375163, "wgs_lat": 31.1192}
{"id": "B0M6U9S1DS", "name": "林内采暖(上海旗舰店)", "typecode": "060600", "cell_id": 5887, "wgs_lng": 121.382679, "wgs_lat": 31.111968}
{"id": "B0H13CLI0G", "name": "鹿可花坊(碧泉路店)", "typecode": "060501", "cell_id": 5887, "wgs_lng": 121.377685, "wgs_lat": 31.112443}
{"id": "B0KDHULTAR", "name": "红妮(莘建东路)", "typecode": "061101", "cell_id": 5887, "wgs_lng": 121.378289, "wgs_lat": 31.111765}
{"id": "B0KKHC73HB", "name": "S·Queen轻奢买手店", "typecode": "061100", "cell_id": 5887, "wgs_lng": 121.378472, "wgs_lat": 31.112023}
{"id": "B0I12P1N37", "name": "花之屋花艺(老巷子店)", "typecode": "060501", "cell_id": 5887, "wgs_lng": 121.377632, "wgs_lat": 31.112489}
{"id": "B0KRVKD4AQ", "name": "卉倾城鲜花店(莘庄店)", "typecode": "060501", "cell_id": 5887, "wgs_lng": 121.382679, "wgs_lat": 31.117631}
{"id": "B0M69DAL49", "name": "曦瓜大红袍(上海闵行莘庄店)", "typecode": "061200", "cell_id": 5887, "wgs_lng": 121.382389, "wgs_lat": 31.117024}
{"id": "B0FFIC2ADA", "name": "松鼠便利(水清二村水清路298弄店)", "typecode": "060200", "cell_id": 5887, "wgs_lng": 121.376879, "wgs_lat": 31.118543}
{"id": "B0L1DZTHE4", "name": "优贝RoyalBaby易骑儿童车(闵行店)", "typecode": "061207", "cell_id": 5887, "wgs_lng": 121.376634, "wgs_lat": 31.118796}
{"id": "B0JK7RQO4D", "name": "小刘兴化蟹专卖店(水清路店)", "typecode": "060706", "cell_id": 5887, "wgs_lng": 121.375848, "wgs_lat": 31.117927}
{"id": "B0FFJRGM4K", "name": "Forest Beauty森の美睫(天荟店)", "typecode": "061400|190000", "cell_id": 5887, "wgs_lng": 121.383646, "wgs_lat": 31.113031}
{"id": "B00155G1MA", "name": "来伊份(水清路店)", "typecode": "061200", "cell_id": 5887, "wgs_lng": 121.37622, "wgs_lat": 31.118108}
{"id": "B0K37BRGWE", "name": "蟹臻鲜阳澄湖大闸蟹(水清路店)", "typecode": "060706", "cell_id": 5887, "wgs_lng": 121.376894, "wgs_lat": 31.117278}
{"id": "B0L12ST418", "name": "嘉玥珠宝", "typecode": "061202", "cell_id": 5887, "wgs_lng": 121.383677, "wgs_lat": 31.113195}
{"id": "B001557CMI", "name": "君松地产(莘建东路店)", "typecode": "061100|071600", "cell_id": 5887, "wgs_lng": 121.378143, "wgs_lat": 31.11218}
{"id": "B0GKLSGX6U", "name": "彩票电子烟(莘庄地铁南广场店)(暂停营业)", "typecode": "060000", "cell_id": 5887, "wgs_lng": 121.381671, "wgs_lat": 31.111247}
{"id": "B00155BAB6", "name": "顺德门窗(水清三邨公寓店)", "typecode": "060603", "cell_id": 5887, "wgs_lng": 121.37512, "wgs_lat": 31.119326}
{"id": "B0FFG0O38V", "name": "名媛坊(莘朱路店)", "typecode": "061100", "cell_id": 5887, "wgs_lng": 121.385001, "wgs_lat": 31.111551}
{"id": "B0IRTUGDU3", "name": "井尚造型美容养生", "typecode": "061100|070000", "cell_id": 5887, "wgs_lng": 121.376084, "wgs_lat": 31.117621}
{"id": "B0FFL2IT5V", "name": "博雅琴行", "typecode": "061200", "cell_id": 5887, "wgs_lng": 121.375749, "wgs_lat": 31.116552}
{"id": "B0JUH6JK7P", "name": "玺鸣堂珠宝(地铁明珠苑店)", "typecode": "061202", "cell_id": 5887, "wgs_lng": 121.380888, "wgs_lat": 31.114815}
{"id": "B0MGABBPUE", "name": "切果NOW!(莘庄店)", "typecode": "060704", "cell_id": 5887, "wgs_lng": 121.382289, "wgs_lat": 31.117324}
{"id": "B0LUKAVBP9", "name": "邻里便利店(庙泾路店)", "typecode": "060200", "cell_id": 5887, "wgs_lng": 121.376944, "wgs_lat": 31.118627}
{"id": "B0KKAAGL55", "name": "捷而惠", "typecode": "060200", "cell_id": 5887, "wgs_lng": 121.380362, "wgs_lat": 31.115612}
{"id": "B0J2CM3NHI", "name": "点滴生活空间(绿地科技岛广场店)", "typecode": "060000", "cell_id": 5887, "wgs_lng": 121.382697, "wgs_lat": 31.116933}
{"id": "B0MBTXE5VZ", "name": "生鲜自动售卖", "typecode": "060000", "cell_id": 5887, "wgs_lng": 121.384931, "wgs_lat": 31.115846}
{"id": "B0JK37BQZN", "name": "腹司烟酒综合商店(绿地科技岛广场店)", "typecode": "060200", "cell_id": 5887, "wgs_lng": 121.381668, "wgs_lat": 31.117484}
{"id": "B0G0P9HTN4", "name": "君松房产外贸服装工厂店", "typecode": "061100|071600", "cell_id": 5887, "wgs_lng": 121.378133, "wgs_lat": 31.112941}
{"id": "B0G0P9HTN4", "name": "君松房产外贸服装工厂店", "typecode": "061100|071600", "cell_id": 5887, "wgs_lng": 121.378133, "wgs_lat": 31.112941}
{"id": "B0GUJ1T9PV", "name": "上海日晟乐购超市", "typecode": "060400", "cell_id": 5887, "wgs_lng": 121.384368, "wgs_lat": 31.114183}
{"id": "B0L1ZCO253", "name": "宽仁大度酒业", "typecode": "061210", "cell_id": 5887, "wgs_lng": 121.382005, "wgs_lat": 31.111447}
{"id": "B0H0M7NLUE", "name": "牛奶专卖牛奶(水清路店)", "typecode": "060703", "cell_id": 5887, "wgs_lng": 121.376118, "wgs_lat": 31.11757}
{"id": "B0LR6HFT8G", "name": "久加久酒博汇(上海绿地广场店)", "typecode": "061210", "cell_id": 5887, "wgs_lng": 121.381975, "wgs_lat": 31.117424}
{"id": "B0FFLFBORC", "name": "云庭茶庄(紫欣公寓店)", "typecode": "061200", "cell_id": 5887, "wgs_lng": 121.380561, "wgs_lat": 31.115823}
{"id": "B0M6XDPE4B", "name": "卡塔利亚零售", "typecode": "060000", "cell_id": 5887, "wgs_lng": 121.38169, "wgs_lat": 31.112477}
{"id": "B0MBPN0OGE", "name": "上海邱氏家居用品有限公司(TODTOWN Mall天荟广场店)", "typecode": "060600", "cell_id": 5887, "wgs_lng": 121.381829, "wgs_lat": 31.113285}
{"id": "B0FFFE85SC", "name": "shoe欧韩服饰", "typecode": "061100", "cell_id": 5887, "wgs_lng": 121.376051, "wgs_lat": 31.117631}
{"id": "B0L1RMA7C3", "name": "公牛装饰开关(庙泾路店)", "typecode": "060603", "cell_id": 5887, "wgs_lng": 121.375399, "wgs_lat": 31.118131}
{"id": "B0M6TR6CLL", "name": "CLMX(天荟广场店)", "typecode": "060000", "cell_id": 5887, "wgs_lng": 121.38274, "wgs_lat": 31.111527}
{"id": "B0L6NMNUNN", "name": "青花郎", "typecode": "061210", "cell_id": 5887, "wgs_lng": 121.381684, "wgs_lat": 31.117252}
{"id": "B0M6XURJG5", "name": "斗门鲜花店", "typecode": "060501", "cell_id": 5887, "wgs_lng": 121.384988, "wgs_lat": 31.115873}
{"id": "B0L3R5O44L", "name": "吉尔麦斯", "typecode": "060000", "cell_id": 5887, "wgs_lng": 121.38189, "wgs_lat": 31.117574}
{"id": "B0L3TX8PEI", "name": "欧鸽", "typecode": "061100", "cell_id": 5887, "wgs_lng": 121.375165, "wgs_lat": 31.119222}
{"id": "B0MBACA2ZZ", "name": "易盛烟酒", "typecode": "061200", "cell_id": 5887, "wgs_lng": 121.374846, "wgs_lat": 31.115331}
{"id": "B0LU2DWLZQ", "name": "素柚精品女装集合店", "typecode": "061100", "cell_id": 5887, "wgs_lng": 121.377588, "wgs_lat": 31.111649}
{"id": "B0MBA7A772", "name": "澜锦高级水貂服装服饰贸易坊", "typecode": "060000", "cell_id": 5887, "wgs_lng": 121.384288, "wgs_lat": 31.111726}
{"id": "B0LGLSNSWC", "name": "YSKOO超市", "typecode": "060400", "cell_id": 5887, "wgs_lng": 121.374865, "wgs_lat": 31.117894}
{"id": "B0L15Z0FQM", "name": "mrlnall", "typecode": "060000", "cell_id": 5887, "wgs_lng": 121.376441, "wgs_lat": 31.117048}
{"id": "B00157I4CB", "name": "鸿顺果业连锁大卖场(报春路店)", "typecode": "060704", "cell_id": 5888, "wgs_lng": 121.384091, "wgs_lat": 31.126538}
{"id": "B0J2HMCNQQ", "name": "明靓星晨护肤造型", "typecode": "060000", "cell_id": 5888, "wgs_lng": 121.377567, "wgs_lat": 31.12385}
{"id": "B0LRRCKVN8", "name": "延寶軒旧货调剂店", "typecode": "060702", "cell_id": 5888, "wgs_lng": 121.384606, "wgs_lat": 31.126713}
{"id": "B00155INTZ", "name": "咏文上书房(新梅广场店)", "typecode": "061205|080500", "cell_id": 5888, "wgs_lng": 121.384932, "wgs_lat": 31.123835}
{"id": "B001557GL9", "name": "联华超市(阳明店)", "typecode": "060400", "cell_id": 5888, "wgs_lng": 121.378242, "wgs_lat": 31.124273}
{"id": "B00155INU3", "name": "联华超市", "typecode": "060405", "cell_id": 5888, "wgs_lng": 121.383156, "wgs_lat": 31.125742}
{"id": "B0MG7HHCDB", "name": "非梵黄金回收", "typecode": "061200", "cell_id": 5888, "wgs_lng": 121.383716, "wgs_lat": 31.125998}
{"id": "B0J2ZA5WXV", "name": "菲丽宠物萌宠基地大型猫舍犬舍宠物基地", "typecode": "061211", "cell_id": 5888, "wgs_lng": 121.378821, "wgs_lat": 31.122824}
{"id": "B0KGTRF36M", "name": "悠贝宠物(新梅广场店)", "typecode": "061211", "cell_id": 5888, "wgs_lng": 121.384789, "wgs_lat": 31.123749}
{"id": "B0FFIAFM6W", "name": "家得乐生鲜超市(报春路店)", "typecode": "060703", "cell_id": 5888, "wgs_lng": 121.383541, "wgs_lat": 31.126303}
{"id": "B0KU36B2G9", "name": "元气大浴场24H自助宠物店(莘庄店)", "typecode": "061211", "cell_id": 5888, "wgs_lng": 121.374532, "wgs_lat": 31.123345}
{"id": "B0MGH6RUTS", "name": "美材帮房屋改造社区店(闵行报春路店)", "typecode": "060603", "cell_id": 5888, "wgs_lng": 121.384115, "wgs_lat": 31.126162}
{"id": "B00152CE76", "name": "红福五金灯饰经营部(新梅公寓报春路399弄店)", "typecode": "060603", "cell_id": 5888, "wgs_lng": 121.384039, "wgs_lat": 31.126132}
{"id": "B0FFIC7LJ4", "name": "走味果仓(报春路店)", "typecode": "060704", "cell_id": 5888, "wgs_lng": 121.374998, "wgs_lat": 31.12312}
{"id": "B0FFI0MWSB", "name": "绿阳五金(丽华公寓店)", "typecode": "060603", "cell_id": 5888, "wgs_lng": 121.377807, "wgs_lat": 31.124286}
{"id": "B0MG0CGX4Q", "name": "黑马优选生鲜超市", "typecode": "060200", "cell_id": 5888, "wgs_lng": 121.377743, "wgs_lat": 31.123873}
{"id": "B0FFKSFVXP", "name": "清美鲜食(报春路三店)", "typecode": "060400", "cell_id": 5888, "wgs_lng": 121.383798, "wgs_lat": 31.125987}
{"id": "B001556PO5", "name": "肩技道超然美容", "typecode": "061100|071100", "cell_id": 5888, "wgs_lng": 121.374929, "wgs_lat": 31.123139}
{"id": "B0FFFDZFJK", "name": "阿明水果大卖场(报春路)", "typecode": "060704", "cell_id": 5888, "wgs_lng": 121.377778, "wgs_lat": 31.124266}
{"id": "B00157042N", "name": "晨光文具(报春路店)", "typecode": "060800", "cell_id": 5888, "wgs_lng": 121.384442, "wgs_lat": 31.126286}
{"id": "B0FFHQ3OYS", "name": "dogstudio狗工作室(龙茗路店)", "typecode": "061211", "cell_id": 5888, "wgs_lng": 121.384272, "wgs_lat": 31.123688}
{"id": "B00151ECA4", "name": "淘宝屋玩具店(报春路店)", "typecode": "061207", "cell_id": 5888, "wgs_lng": 121.384265, "wgs_lat": 31.126581}
{"id": "B0J34C2XA6", "name": "中国移动(莘庄店)", "typecode": "060305", "cell_id": 5888, "wgs_lng": 121.382979, "wgs_lat": 31.126081}
{"id": "B0FFIBREZ1", "name": "王芪堂(报春路店)", "typecode": "060000", "cell_id": 5888, "wgs_lng": 121.38423, "wgs_lat": 31.126567}
{"id": "B00155INU0", "name": "快客便利店(新梅广场店)", "typecode": "060200", "cell_id": 5888, "wgs_lng": 121.384661, "wgs_lat": 31.123773}
{"id": "B0FFHD0V9S", "name": "塔浩文具(丽华公寓店)", "typecode": "060800", "cell_id": 5888, "wgs_lng": 121.377738, "wgs_lat": 31.12424}
{"id": "B0H3J76EQE", "name": "沪豫生鲜(新梅公寓报春路399弄店)", "typecode": "060703", "cell_id": 5888, "wgs_lng": 121.384383, "wgs_lat": 31.126265}
{"id": "B0H0C7XSIM", "name": "内蒙草原牛羊肉专卖店", "typecode": "060703", "cell_id": 5888, "wgs_lng": 121.374605, "wgs_lat": 31.123362}
{"id": "B0LGN7UACK", "name": "只只宠物·伊珊娜皮毛调理", "typecode": "061211", "cell_id": 5888, "wgs_lng": 121.383038, "wgs_lat": 31.126093}
{"id": "B0GKN79FXY", "name": "崇明生态(报春路店)", "typecode": "060703", "cell_id": 5888, "wgs_lng": 121.374447, "wgs_lat": 31.123316}
{"id": "B0LDGZD3HG", "name": "相遇天使视康·疗愈头疗·轻奢美肤·健康管理", "typecode": "061100|071100", "cell_id": 5888, "wgs_lng": 121.374324, "wgs_lat": 31.122974}
{"id": "B0FFG7XK39", "name": "酒管家(新梅花苑东区店)", "typecode": "061210", "cell_id": 5888, "wgs_lng": 121.384352, "wgs_lat": 31.126615}
{"id": "B0LUXZI2G1", "name": "张奶奶海参(报春路店)", "typecode": "060000", "cell_id": 5888, "wgs_lng": 121.384335, "wgs_lat": 31.126214}
{"id": "B001549AA7", "name": "报春烟酒店", "typecode": "061210", "cell_id": 5888, "wgs_lng": 121.383607, "wgs_lat": 31.12595}
{"id": "B0FFKQHL70", "name": "悦欣鲜花礼品店", "typecode": "060501", "cell_id": 5888, "wgs_lng": 121.384793, "wgs_lat": 31.123809}
{"id": "B0KR415O4Z", "name": "延陵堂旧货调剂店", "typecode": "060000", "cell_id": 5888, "wgs_lng": 121.384752, "wgs_lat": 31.126776}
{"id": "B0I26SGJJQ", "name": "Annie Studio安妮轻奢时装(新梅公寓报春路399弄店)", "typecode": "061100", "cell_id": 5888, "wgs_lng": 121.383375, "wgs_lat": 31.125861}
{"id": "B0G064LYZT", "name": "豫香来正宗黄牛肉(报春路店)", "typecode": "060703|050000", "cell_id": 5888, "wgs_lng": 121.383583, "wgs_lat": 31.125903}
{"id": "B0FFF9KAWD", "name": "TINA美甲&美睫半永久(报春路店)", "typecode": "071100|061100", "cell_id": 5888, "wgs_lng": 121.382938, "wgs_lat": 31.126168}
{"id": "B0FFK652BE", "name": "龙井茶庄(报春路店)", "typecode": "061200", "cell_id": 5888, "wgs_lng": 121.384206, "wgs_lat": 31.126194}
{"id": "B0FFGYVJRY", "name": "左萱烟酒茶", "typecode": "060200", "cell_id": 5888, "wgs_lng": 121.375076, "wgs_lat": 31.123137}
{"id": "B0L09HDEJC", "name": "悦视佳眼镜", "typecode": "061204", "cell_id": 5888, "wgs_lng": 121.374532, "wgs_lat": 31.123345}
{"id": "B001557HF3", "name": "玲珑灯饰(报春路店)", "typecode": "060606", "cell_id": 5888, "wgs_lng": 121.383957, "wgs_lat": 31.126099}
{"id": "B0J12D6G5E", "name": "妃缘康健康管理", "typecode": "060000", "cell_id": 5888, "wgs_lng": 121.383477, "wgs_lat": 31.125872}
{"id": "B0FFKCY37Y", "name": "顺心百货(新梅花苑东区店)", "typecode": "060200", "cell_id": 5888, "wgs_lng": 121.384201, "wgs_lat": 31.126556}
{"id": "B0LKH7R892", "name": "植道花开(衡园·莘光里店)", "typecode": "060501", "cell_id": 5888, "wgs_lng": 121.38231, "wgs_lat": 31.127966}
{"id": "B0FFHD2BEV", "name": "爱依外贸原单(报春路店)", "typecode": "061100", "cell_id": 5888, "wgs_lng": 121.374405, "wgs_lat": 31.123325}
{"id": "B0KK5L8MB3", "name": "On衣优品", "typecode": "061100", "cell_id": 5888, "wgs_lng": 121.378379, "wgs_lat": 31.124653}
{"id": "B0LKJS11QB", "name": "凯美多(报春路店)", "typecode": "061100", "cell_id": 5888, "wgs_lng": 121.382949, "wgs_lat": 31.126044}
{"id": "B0I1LHJ8UO", "name": "凤铝铝材(星丰苑店)", "typecode": "060603", "cell_id": 5888, "wgs_lng": 121.376076, "wgs_lat": 31.128313}
{"id": "B0MB9BTP2P", "name": "得力文具店", "typecode": "060800", "cell_id": 5888, "wgs_lng": 121.384137, "wgs_lat": 31.126518}
{"id": "B0LKB6SIID", "name": "宠顺达宠物用品店", "typecode": "061211", "cell_id": 5888, "wgs_lng": 121.384911, "wgs_lat": 31.12603}
{"id": "B0MABARS9W", "name": "兴广便利店", "typecode": "060200", "cell_id": 5888, "wgs_lng": 121.375156, "wgs_lat": 31.123159}
{"id": "B0LDUH803B", "name": "繁盛烟酒", "typecode": "061210", "cell_id": 5888, "wgs_lng": 121.383931, "wgs_lat": 31.126089}
{"id": "B0KG67X9K6", "name": "西缘烟酒(新梅公寓报春路399弄店)", "typecode": "061210", "cell_id": 5888, "wgs_lng": 121.384335, "wgs_lat": 31.12625}
{"id": "B0IAVHIXFJ", "name": "振华门窗装潢部(丽华公寓店)", "typecode": "060600", "cell_id": 5888, "wgs_lng": 121.375058, "wgs_lat": 31.123492}
{"id": "B0FFH3OZ2M", "name": "凤凯门窗(丽华公寓店)", "typecode": "060603", "cell_id": 5888, "wgs_lng": 121.375518, "wgs_lat": 31.123616}
{"id": "B0HU76V990", "name": "百顺蔬菜", "typecode": "060705", "cell_id": 5888, "wgs_lng": 121.38482, "wgs_lat": 31.126396}
{"id": "B0M6XMNRG8", "name": "九华山土特产", "typecode": "061214", "cell_id": 5888, "wgs_lng": 121.384787, "wgs_lat": 31.123769}
{"id": "B0FFJPF2KC", "name": "畹町坊", "typecode": "060102", "cell_id": 6013, "wgs_lng": 121.395188, "wgs_lat": 31.110165}
{"id": "B0LBSHUC0H", "name": "春申里", "typecode": "060000|120000", "cell_id": 6013, "wgs_lng": 121.391757, "wgs_lat": 31.105338}
{"id": "B0I195W31U", "name": "YONEX(莘庄店)", "typecode": "060900", "cell_id": 6013, "wgs_lng": 121.395378, "wgs_lat": 31.107554}
{"id": "B0FFG6A1KY", "name": "联华超市(百林店)", "typecode": "060400", "cell_id": 6013, "wgs_lng": 121.387265, "wgs_lat": 31.10404}
{"id": "B0G3VRFXL5", "name": "百果园(都市路店)", "typecode": "060704", "cell_id": 6013, "wgs_lng": 121.38751, "wgs_lat": 31.103418}
{"id": "B0LGUZC12P", "name": "尾流单车(BIKE SHOP)", "typecode": "061208", "cell_id": 6013, "wgs_lng": 121.388398, "wgs_lat": 31.10193}
{"id": "B001556N5V", "name": "宝岛眼镜(上海莘庄都市店)", "typecode": "061204", "cell_id": 6013, "wgs_lng": 121.388024, "wgs_lat": 31.102591}
{"id": "B00156F5D7", "name": "全家便利店(解放大厦店)", "typecode": "060200", "cell_id": 6013, "wgs_lng": 121.385534, "wgs_lat": 31.106007}
{"id": "B0FFKH67P4", "name": "LAWSON罗森(畹町坊店)", "typecode": "060200", "cell_id": 6013, "wgs_lng": 121.395225, "wgs_lat": 31.110335}
{"id": "B0FFFTQCUO", "name": "福建果业(名都新城三期店)", "typecode": "060704", "cell_id": 6013, "wgs_lng": 121.386024, "wgs_lat": 31.109332}
{"id": "B0IB9A3ZH0", "name": "宠物家(中旭广场店)", "typecode": "061211", "cell_id": 6013, "wgs_lng": 121.385695, "wgs_lat": 31.103679}
{"id": "B00156F42T", "name": "上海家园农贸市场", "typecode": "060703", "cell_id": 6013, "wgs_lng": 121.387863, "wgs_lat": 31.102846}
{"id": "B0FFJGJF1A", "name": "舒美居家饰(春申路店)", "typecode": "060000", "cell_id": 6013, "wgs_lng": 121.395003, "wgs_lat": 31.107471}
{"id": "B0FFG9SN43", "name": "莘庄五金锁具开锁(莲浦新苑店)", "typecode": "060603", "cell_id": 6013, "wgs_lng": 121.385843, "wgs_lat": 31.109289}
{"id": "B0HAMKZ4U2", "name": "清美生鲜(名都路店)", "typecode": "060703", "cell_id": 6013, "wgs_lng": 121.385772, "wgs_lat": 31.109942}
{"id": "B0LU4UV3R4", "name": "阿甘兄弟(名都路店)", "typecode": "060000", "cell_id": 6013, "wgs_lng": 121.38584, "wgs_lat": 31.109435}
{"id": "B0H6OZQJZB", "name": "LAWSON罗森(莘城公寓店)", "typecode": "060200", "cell_id": 6013, "wgs_lng": 121.389312, "wgs_lat": 31.108689}
{"id": "B0G23AB385", "name": "雅迪电动车(春申路店)", "typecode": "061208", "cell_id": 6013, "wgs_lng": 121.395328, "wgs_lat": 31.107523}
{"id": "B0I0RMT6TJ", "name": "申蔬联华生鲜超市(畹町坊店)", "typecode": "060705", "cell_id": 6013, "wgs_lng": 121.395361, "wgs_lat": 31.110422}
{"id": "B0FFGFAZBP", "name": "快客便利店(名都店)", "typecode": "060200", "cell_id": 6013, "wgs_lng": 121.386178, "wgs_lat": 31.108685}
{"id": "B00156F61F", "name": "诚信粮油(春申城华丽家园店)", "typecode": "060703", "cell_id": 6013, "wgs_lng": 121.388902, "wgs_lat": 31.103165}
{"id": "B0G2CRA5YV", "name": "悦刻RELX雪加柚子魔笛电子烟(可闪送)", "typecode": "060000", "cell_id": 6013, "wgs_lng": 121.395298, "wgs_lat": 31.110337}
{"id": "B0H1MUYZAA", "name": "EYE小宝眼健康中心", "typecode": "061204", "cell_id": 6013, "wgs_lng": 121.391894, "wgs_lat": 31.105286}
{"id": "B0K0ZRZEBZ", "name": "隆图门窗", "typecode": "060603", "cell_id": 6013, "wgs_lng": 121.389773, "wgs_lat": 31.103439}
{"id": "B0K1XHY28M", "name": "骆记阳澄湖大闸蟹(春申路店)", "typecode": "060706", "cell_id": 6013, "wgs_lng": 121.395548, "wgs_lat": 31.107603}
{"id": "B0FFG28PWE", "name": "时尚窗帘布艺(步行街)", "typecode": "060605", "cell_id": 6013, "wgs_lng": 121.385817, "wgs_lat": 31.109758}
{"id": "B0KKJMHQDX", "name": "农夫果品批发行(都市路店)", "typecode": "060704", "cell_id": 6013, "wgs_lng": 121.388131, "wgs_lat": 31.102204}
{"id": "B0H2PRTSQH", "name": "芳芳鲜果超市(莘城公寓店)", "typecode": "060704", "cell_id": 6013, "wgs_lng": 121.389091, "wgs_lat": 31.108712}
{"id": "B0G3DR34MN", "name": "小雪鲜果园(春申城华丽家园店)", "typecode": "060704", "cell_id": 6013, "wgs_lng": 121.389928, "wgs_lat": 31.103488}
{"id": "B0LGJCPRFN", "name": "晨光文具(春申里店)", "typecode": "060000", "cell_id": 6013, "wgs_lng": 121.391784, "wgs_lat": 31.105545}
{"id": "B0FFH80Z8I", "name": "家园菜场(上海家园农贸市场店)", "typecode": "060705", "cell_id": 6013, "wgs_lng": 121.387959, "wgs_lat": 31.102972}
{"id": "B0K3SMMR0C", "name": "小喜嘉便利店(春申里店)", "typecode": "060200", "cell_id": 6013, "wgs_lng": 121.391985, "wgs_lat": 31.105126}
{"id": "B0I1MRD3QF", "name": "琦王花生(上海闵行畹町坊店)", "typecode": "061200", "cell_id": 6013, "wgs_lng": 121.395284, "wgs_lat": 31.110023}
{"id": "B0FFGTQJSR", "name": "鑫琳水站(莘城公寓店)", "typecode": "060200|070000", "cell_id": 6013, "wgs_lng": 121.388725, "wgs_lat": 31.108477}
{"id": "B0HKNZPJ72", "name": "润泽祥(春申城华丽家园店)", "typecode": "061200", "cell_id": 6013, "wgs_lng": 121.388614, "wgs_lat": 31.103074}
{"id": "B0FFG69RWZ", "name": "大音琴行", "typecode": "141400|061200", "cell_id": 6013, "wgs_lng": 121.385716, "wgs_lat": 31.109511}
{"id": "B0HKDCZH38", "name": "百滋味", "typecode": "061200|050000", "cell_id": 6013, "wgs_lng": 121.38808, "wgs_lat": 31.102263}
{"id": "B0KUUKR9UN", "name": "好惠多生鲜超市(春申复地城二期店)", "typecode": "060000", "cell_id": 6013, "wgs_lng": 121.388068, "wgs_lat": 31.102298}
{"id": "B0FFHW2L5Y", "name": "家园花坊", "typecode": "060501", "cell_id": 6013, "wgs_lng": 121.387761, "wgs_lat": 31.102862}
{"id": "B0FFGJ98RG", "name": "顺音琴行(中旭广场B座店)", "typecode": "061200", "cell_id": 6013, "wgs_lng": 121.386049, "wgs_lat": 31.103713}
{"id": "B0FFFOSTCI", "name": "雨佳食品(都市店)", "typecode": "060200", "cell_id": 6013, "wgs_lng": 121.387657, "wgs_lat": 31.103112}
{"id": "B0L3GBHNEC", "name": "茶观园品牌集合店", "typecode": "060000", "cell_id": 6013, "wgs_lng": 121.389159, "wgs_lat": 31.103192}
{"id": "B0ID7UBBJ5", "name": "凤铝门窗", "typecode": "060603", "cell_id": 6013, "wgs_lng": 121.395652, "wgs_lat": 31.107655}
{"id": "B0FFHIZ74W", "name": "运峰门窗(春申城华丽家园店)", "typecode": "060603", "cell_id": 6013, "wgs_lng": 121.38997, "wgs_lat": 31.103509}
{"id": "B0FFFWNHBP", "name": "耀华玻璃店(腾冲路店)", "typecode": "060603", "cell_id": 6013, "wgs_lng": 121.389453, "wgs_lat": 31.103317}
{"id": "B0FFK8BK78", "name": "婆媳菜店(名都新城三期店)", "typecode": "060705", "cell_id": 6013, "wgs_lng": 121.38611, "wgs_lat": 31.108852}
{"id": "B0I24LUA9T", "name": "鲜果折扣店(名都路店)", "typecode": "060704", "cell_id": 6013, "wgs_lng": 121.385946, "wgs_lat": 31.109527}
{"id": "B0FFH0ZU2K", "name": "大米杂粮(步行街店)", "typecode": "060703", "cell_id": 6013, "wgs_lng": 121.385923, "wgs_lat": 31.10913}
{"id": "B0KALK7UCM", "name": "CISSIROOM喜璐", "typecode": "061100", "cell_id": 6013, "wgs_lng": 121.390579, "wgs_lat": 31.104952}
{"id": "B0M61MFWXK", "name": "学而思学习机(春申宝燕店)", "typecode": "060306", "cell_id": 6013, "wgs_lng": 121.391336, "wgs_lat": 31.105626}
{"id": "B0015700Z9", "name": "大弟烟酒商行(名都新城三期店)", "typecode": "061210", "cell_id": 6013, "wgs_lng": 121.385918, "wgs_lat": 31.109632}
{"id": "B0FFF7469C", "name": "奇乐宝贝科技营(闵行店)", "typecode": "061207", "cell_id": 6013, "wgs_lng": 121.386876, "wgs_lat": 31.107333}
{"id": "B0FFLOXNTC", "name": "隆昌烟酒(莘城公寓店)", "typecode": "061210", "cell_id": 6013, "wgs_lng": 121.386979, "wgs_lat": 31.110814}
{"id": "B0FFFOTJAK", "name": "上海旋安门窗有限公司", "typecode": "060603", "cell_id": 6013, "wgs_lng": 121.390055, "wgs_lat": 31.103527}
{"id": "B0GRJCNVDM", "name": "唯烟食品店", "typecode": "061210|060200", "cell_id": 6013, "wgs_lng": 121.389718, "wgs_lat": 31.1034}
{"id": "B0FFLFBMJK", "name": "新都小店(春申城华丽家园店)", "typecode": "060200", "cell_id": 6013, "wgs_lng": 121.390159, "wgs_lat": 31.10356}
{"id": "B0FFG69NL1", "name": "酒类直供烟草专卖(春申路店)", "typecode": "061210", "cell_id": 6013, "wgs_lng": 121.395478, "wgs_lat": 31.107578}
{"id": "B0L24XQ5XU", "name": "LULU STUDIO", "typecode": "061100", "cell_id": 6013, "wgs_lng": 121.388165, "wgs_lat": 31.102042}
{"id": "B0KBMABWQA", "name": "快乐小家生活馆(春申复地城二期店)", "typecode": "060000", "cell_id": 6013, "wgs_lng": 121.388512, "wgs_lat": 31.101865}
{"id": "B0KB3S3PEV", "name": "富粞粮仓(华丽家园店)", "typecode": "060703", "cell_id": 6013, "wgs_lng": 121.390045, "wgs_lat": 31.103502}
{"id": "B0LUUHBCDS", "name": "凯蒂童爱青少年服务中心", "typecode": "061207", "cell_id": 6013, "wgs_lng": 121.395184, "wgs_lat": 31.110173}
{"id": "B0HBTA111B", "name": "旺园家禽", "typecode": "060703", "cell_id": 6013, "wgs_lng": 121.387799, "wgs_lat": 31.10288}
{"id": "B0L1DUUD01", "name": "玫瑰久久", "typecode": "061100", "cell_id": 6013, "wgs_lng": 121.393385, "wgs_lat": 31.107125}
{"id": "B0MB4UYX8C", "name": "腾冲路便利店", "typecode": "060200", "cell_id": 6013, "wgs_lng": 121.388237, "wgs_lat": 31.102679}
{"id": "B0MABHRU3R", "name": "康越鲜奶", "typecode": "060703", "cell_id": 6013, "wgs_lng": 121.389252, "wgs_lat": 31.103254}
{"id": "B0MGAOGFP9", "name": "亚宝品质生活馆", "typecode": "060000", "cell_id": 6013, "wgs_lng": 121.390532, "wgs_lat": 31.101793}
{"id": "B0LD1PJS3Z", "name": "果辻果切", "typecode": "060704", "cell_id": 6013, "wgs_lng": 121.388087, "wgs_lat": 31.102529}
{"id": "B0MG5GYBD2", "name": "江西土猪肉", "typecode": "061200", "cell_id": 6013, "wgs_lng": 121.386049, "wgs_lat": 31.109399}
{"id": "B0M6XURXAW", "name": "祁门红茶", "typecode": "061200", "cell_id": 6013, "wgs_lng": 121.388487, "wgs_lat": 31.101979}
{"id": "B0FFGANKRZ", "name": "珍爱鲜花坊(春田花花店)", "typecode": "060501", "cell_id": 6013, "wgs_lng": 121.390706, "wgs_lat": 31.101807}
{"id": "B0HD3HP4PS", "name": "中国联通(莘朱路营业厅)", "typecode": "060305|070604", "cell_id": 6014, "wgs_lng": 121.384963, "wgs_lat": 31.111534}
{"id": "B0GR97QC56", "name": "捷安特自行车(宝城路店)", "typecode": "061208", "cell_id": 6014, "wgs_lng": 121.385987, "wgs_lat": 31.112574}
{"id": "B0JBYMTLKU", "name": "尚蔬生鲜•养馋记(梅香市集店)", "typecode": "050000|060000", "cell_id": 6014, "wgs_lng": 121.39251, "wgs_lat": 31.11466}
{"id": "B0FFGYZT5R", "name": "联华超市(百朱店)", "typecode": "060400", "cell_id": 6014, "wgs_lng": 121.386395, "wgs_lat": 31.112213}
{"id": "B0HA7GY4TD", "name": "台铃电动车(莘朱路店)", "typecode": "061208", "cell_id": 6014, "wgs_lng": 121.386994, "wgs_lat": 31.111998}
{"id": "B0FFI1FQS9", "name": "南莘菜市场", "typecode": "060705|060703", "cell_id": 6014, "wgs_lng": 121.392665, "wgs_lat": 31.11147}
{"id": "B0J21AHLJ9", "name": "创艳门窗窗帘纱窗衣架(莘朱路店)", "typecode": "060000", "cell_id": 6014, "wgs_lng": 121.387435, "wgs_lat": 31.112149}
{"id": "B0KBRHPQES", "name": "Nice奈思美学馆(莘梓苑店)", "typecode": "071100|060000", "cell_id": 6014, "wgs_lng": 121.385661, "wgs_lat": 31.111831}
{"id": "B0LUU7BCSL", "name": "小牛电动(莘朱路店)", "typecode": "061208", "cell_id": 6014, "wgs_lng": 121.386928, "wgs_lat": 31.111954}
{"id": "B0H1XZ5UNP", "name": "雅迪电动车(宝城路店)", "typecode": "061208", "cell_id": 6014, "wgs_lng": 121.385983, "wgs_lat": 31.112546}
{"id": "B0IU7ZHWF8", "name": "倾城花店气球派对", "typecode": "060501", "cell_id": 6014, "wgs_lng": 121.385118, "wgs_lat": 31.111601}
{"id": "B0G0XC1M1C", "name": "小佩宠物(莘朱路店)", "typecode": "061211", "cell_id": 6014, "wgs_lng": 121.385456, "wgs_lat": 31.111342}
{"id": "B0FFG1WZDQ", "name": "正欣五金水暖经营部(新空间家园店)", "typecode": "060603", "cell_id": 6014, "wgs_lng": 121.390192, "wgs_lat": 31.113358}
{"id": "B0FFG42EVS", "name": "晨光文具(莘朱路店)", "typecode": "060800", "cell_id": 6014, "wgs_lng": 121.385118, "wgs_lat": 31.111601}
{"id": "B0HAK5HC70", "name": "闽际五金.黄沙水泥批发(常兴家园店)", "typecode": "060603", "cell_id": 6014, "wgs_lng": 121.395315, "wgs_lat": 31.113487}
{"id": "B00156GW4T", "name": "安居五金(宝城路)", "typecode": "060603", "cell_id": 6014, "wgs_lng": 121.386856, "wgs_lat": 31.111937}
{"id": "B0FFG8IVX0", "name": "微山五金机电灯具水暖(常兴家园店)", "typecode": "060603", "cell_id": 6014, "wgs_lng": 121.39479, "wgs_lat": 31.113269}
{"id": "B001557DW4", "name": "快客便利店(常兴家园店)", "typecode": "060200", "cell_id": 6014, "wgs_lng": 121.395287, "wgs_lat": 31.113475}
{"id": "B0FFG2AA0Q", "name": "晨晨窗帘连锁(莘朱路店)", "typecode": "060605", "cell_id": 6014, "wgs_lng": 121.390168, "wgs_lat": 31.113323}
{"id": "B00157HY0K", "name": "星仙副食品店(莘南花苑商办楼店)", "typecode": "060200", "cell_id": 6014, "wgs_lng": 121.392738, "wgs_lat": 31.11438}
{"id": "B001557UMN", "name": "四季水果店(常兴家园店)", "typecode": "060704", "cell_id": 6014, "wgs_lng": 121.394837, "wgs_lat": 31.113277}
{"id": "B0FFHY7UIX", "name": "尚优生活超市(南莘菜市场店)", "typecode": "060400", "cell_id": 6014, "wgs_lng": 121.392466, "wgs_lat": 31.111546}
{"id": "B001572X8F", "name": "上好眼镜(莘梓苑店)", "typecode": "061204", "cell_id": 6014, "wgs_lng": 121.38509, "wgs_lat": 31.111575}
{"id": "B0I2OMN4HA", "name": "梅香市集", "typecode": "060000", "cell_id": 6014, "wgs_lng": 121.392422, "wgs_lat": 31.114596}
{"id": "B0FFGBOJT7", "name": "老顾客水产蔬菜行(高兴店)", "typecode": "060706", "cell_id": 6014, "wgs_lng": 121.394672, "wgs_lat": 31.113244}
{"id": "B0L6Z9PMLJ", "name": "鸾玺堂中医诊所", "typecode": "061202", "cell_id": 6014, "wgs_lng": 121.385648, "wgs_lat": 31.11135}
{"id": "B0G2MCY1DL", "name": "捷达烟酒商行(莘梓苑店)", "typecode": "061210", "cell_id": 6014, "wgs_lng": 121.385462, "wgs_lat": 31.111748}
{"id": "B0ID61AJ6T", "name": "上海市闵行区沈俊烟草店", "typecode": "061210", "cell_id": 6014, "wgs_lng": 121.389761, "wgs_lat": 31.113142}
{"id": "B001574QRO", "name": "农夫山泉送水到府高兴水站(高兴路店)", "typecode": "061200|070000", "cell_id": 6014, "wgs_lng": 121.395138, "wgs_lat": 31.113418}
{"id": "B0FFGOGMAD", "name": "秋裳(莘建东路店)", "typecode": "061100", "cell_id": 6014, "wgs_lng": 121.385574, "wgs_lat": 31.111795}
{"id": "B00156F57B", "name": "来伊份(莘朱路四店)", "typecode": "061200", "cell_id": 6014, "wgs_lng": 121.385607, "wgs_lat": 31.111829}
{"id": "B0G3KMNVYA", "name": "耀昆玻璃门窗(莘城公寓店)", "typecode": "060603", "cell_id": 6014, "wgs_lng": 121.386624, "wgs_lat": 31.111836}
{"id": "B0FFH4TWPR", "name": "漆漆门窗(莘南花苑商办楼店)", "typecode": "060603", "cell_id": 6014, "wgs_lng": 121.392642, "wgs_lat": 31.114378}
{"id": "B0FFH2CHAX", "name": "胡迎服饰(莘朱路店)", "typecode": "061100", "cell_id": 6014, "wgs_lng": 121.385716, "wgs_lat": 31.111909}
{"id": "B0FFIG0E8J", "name": "蔬菜水果(莘南花苑商办楼店)", "typecode": "060705", "cell_id": 6014, "wgs_lng": 121.392571, "wgs_lat": 31.114307}
{"id": "B0G0AKQ7OJ", "name": "果果生活超市(新空间家园店)", "typecode": "060400", "cell_id": 6014, "wgs_lng": 121.389947, "wgs_lat": 31.113254}
{"id": "B001557KGS", "name": "明心文具", "typecode": "061205|060800", "cell_id": 6014, "wgs_lng": 121.394982, "wgs_lat": 31.11334}
{"id": "B0FFG94N1H", "name": "日月明珠宝玉石(新空间家园店)", "typecode": "061202", "cell_id": 6014, "wgs_lng": 121.390346, "wgs_lat": 31.113406}
{"id": "B0LKXKH45X", "name": "千波体育", "typecode": "060900", "cell_id": 6014, "wgs_lng": 121.389935, "wgs_lat": 31.114521}
{"id": "B0LUZUV3UZ", "name": "上海尚品电动车(新空间家园店)", "typecode": "061208", "cell_id": 6014, "wgs_lng": 121.389362, "wgs_lat": 31.112976}
{"id": "B0FFIU1GX4", "name": "上海惠普HP打印机耗材专卖店", "typecode": "060306", "cell_id": 6014, "wgs_lng": 121.390512, "wgs_lat": 31.111329}
{"id": "B001556PC5", "name": "常兴电池玩具(常兴家园店)", "typecode": "061207", "cell_id": 6014, "wgs_lng": 121.39546, "wgs_lat": 31.113542}
{"id": "B0FFLOXNTC", "name": "隆昌烟酒(莘城公寓店)", "typecode": "061210", "cell_id": 6014, "wgs_lng": 121.386979, "wgs_lat": 31.110814}
{"id": "B0L2XSY4BG", "name": "喜上卉美", "typecode": "060501", "cell_id": 6014, "wgs_lng": 121.385462, "wgs_lat": 31.111748}
{"id": "B0FFG0O38V", "name": "名媛坊(莘朱路店)", "typecode": "061100", "cell_id": 6014, "wgs_lng": 121.385001, "wgs_lat": 31.111551}
{"id": "B0LB4DFW63", "name": "fu(莘朱路店)", "typecode": "061100", "cell_id": 6014, "wgs_lng": 121.38511, "wgs_lat": 31.111613}
{"id": "B0J06CQVTO", "name": "得力文具(常兴家园店)", "typecode": "060800", "cell_id": 6014, "wgs_lng": 121.394875, "wgs_lat": 31.113293}
{"id": "B0K2NH6GFU", "name": "来伊份(莘朱路五店)", "typecode": "061200", "cell_id": 6014, "wgs_lng": 121.392649, "wgs_lat": 31.114782}
{"id": "B0JRHKL0UG", "name": "润斯商业", "typecode": "060000", "cell_id": 6014, "wgs_lng": 121.392168, "wgs_lat": 31.114634}
{"id": "B0IKGU9GS3", "name": "惠欣食品店(新空间家园店)", "typecode": "060703", "cell_id": 6014, "wgs_lng": 121.389433, "wgs_lat": 31.113029}
{"id": "B0M6TD372C", "name": "沪森活云超市", "typecode": "060400", "cell_id": 6014, "wgs_lng": 121.392518, "wgs_lat": 31.111554}
{"id": "B0LKHSQD4U", "name": "天元商行", "typecode": "060200", "cell_id": 6014, "wgs_lng": 121.392843, "wgs_lat": 31.112059}
{"id": "B0LUGMG3I4", "name": "亦之亦", "typecode": "061100", "cell_id": 6014, "wgs_lng": 121.391285, "wgs_lat": 31.113671}
{"id": "B0M6XURJG5", "name": "斗门鲜花店", "typecode": "060501", "cell_id": 6014, "wgs_lng": 121.384988, "wgs_lat": 31.115873}
{"id": "B0KRUM1ICV", "name": "叮咚买菜(莘南花苑商办楼店)", "typecode": "060705", "cell_id": 6014, "wgs_lng": 121.392451, "wgs_lat": 31.114291}
{"id": "B0LKSMHSZA", "name": "OFS潮色接发一站式", "typecode": "061200", "cell_id": 6014, "wgs_lng": 121.385976, "wgs_lat": 31.111516}
{"id": "B0J127Z45U", "name": "衡园莘光里", "typecode": "060000", "cell_id": 6015, "wgs_lng": 121.386529, "wgs_lat": 31.126068}
{"id": "B0I0UA4MHO", "name": "超盒算NB(报春路店)", "typecode": "060000", "cell_id": 6015, "wgs_lng": 121.386473, "wgs_lat": 31.127457}
{"id": "B0GK6YOUAK", "name": "方太厨房家电·油烟机·灶具·洗碗机(龙茗路店)", "typecode": "060000", "cell_id": 6015, "wgs_lng": 121.387485, "wgs_lat": 31.125816}
{"id": "B0H0BO4KFC", "name": "中云方门窗(南方商城店)", "typecode": "060603", "cell_id": 6015, "wgs_lng": 121.393643, "wgs_lat": 31.127203}
{"id": "B0FFKVY7FQ", "name": "立邦刷新服务(罗锦路店)", "typecode": "060600", "cell_id": 6015, "wgs_lng": 121.395095, "wgs_lat": 31.123958}
{"id": "B001557NML", "name": "浦阳水泥黄沙", "typecode": "060603", "cell_id": 6015, "wgs_lng": 121.394051, "wgs_lat": 31.124211}
{"id": "B0L04HXPM8", "name": "上海宠物基地猫舍犬舍宠物", "typecode": "061211", "cell_id": 6015, "wgs_lng": 121.394272, "wgs_lat": 31.126939}
{"id": "B0GK7R3QLE", "name": "大公鸡市集", "typecode": "060700", "cell_id": 6015, "wgs_lng": 121.385127, "wgs_lat": 31.126523}
{"id": "B0FFF3TKFE", "name": "百果园(阳城店)", "typecode": "060704", "cell_id": 6015, "wgs_lng": 121.394729, "wgs_lat": 31.124049}
{"id": "B00155INTZ", "name": "咏文上书房(新梅广场店)", "typecode": "061205|080500", "cell_id": 6015, "wgs_lng": 121.384932, "wgs_lat": 31.123835}
{"id": "B0G3DL3QHO", "name": "全家便利店(报春路店)", "typecode": "060200", "cell_id": 6015, "wgs_lng": 121.386286, "wgs_lat": 31.127423}
{"id": "B0FFGZPVD9", "name": "LAWSON罗森(罗锦路1998店)", "typecode": "060200", "cell_id": 6015, "wgs_lng": 121.393229, "wgs_lat": 31.124426}
{"id": "B0I677QN8E", "name": "小海开锁(罗阳七村三洲花园店)", "typecode": "060603|071200", "cell_id": 6015, "wgs_lng": 121.39234, "wgs_lat": 31.124732}
{"id": "B0L247PBRC", "name": "Yoyi Pet宠物生活馆", "typecode": "061211", "cell_id": 6015, "wgs_lng": 121.387134, "wgs_lat": 31.126258}
{"id": "B0FFHQ99L2", "name": "7-ELEVEn(外环店)", "typecode": "060201", "cell_id": 6015, "wgs_lng": 121.388266, "wgs_lat": 31.122959}
{"id": "B0K6T5MZRT", "name": "兰兮时尚喜妈妈装礼服·中式嫁衣·男装租赁定制", "typecode": "061100", "cell_id": 6015, "wgs_lng": 121.386799, "wgs_lat": 31.125658}
{"id": "B0L0HSQ3RD", "name": "上海闵行萌犬萌猫大型宠物市场", "typecode": "061211", "cell_id": 6015, "wgs_lng": 121.387685, "wgs_lat": 31.125766}
{"id": "B00156NSDF", "name": "甜得来果园(报春路店)", "typecode": "060704", "cell_id": 6015, "wgs_lng": 121.385581, "wgs_lat": 31.12707}
{"id": "B0FFI30WHN", "name": "LAWSON罗森(龙茗129号店)", "typecode": "060200", "cell_id": 6015, "wgs_lng": 121.385886, "wgs_lat": 31.126766}
{"id": "B0FFKRFLWT", "name": "老余锂电折叠车专卖店", "typecode": "061208", "cell_id": 6015, "wgs_lng": 121.390649, "wgs_lat": 31.124217}
{"id": "B001510760", "name": "友谊五金店(报春路店)", "typecode": "060603", "cell_id": 6015, "wgs_lng": 121.38566, "wgs_lat": 31.127129}
{"id": "B0FFLF7A6B", "name": "钱大妈(上海阳城店)", "typecode": "060703", "cell_id": 6015, "wgs_lng": 121.394051, "wgs_lat": 31.124212}
{"id": "B0L3KMBI12", "name": "安崽铺Studio.", "typecode": "061100", "cell_id": 6015, "wgs_lng": 121.386786, "wgs_lat": 31.126116}
{"id": "B0KA3UNA6X", "name": "W·L STUDIO设计师品牌店", "typecode": "061100", "cell_id": 6015, "wgs_lng": 121.386866, "wgs_lat": 31.12553}
{"id": "B0GRHKMHUW", "name": "清美生鲜(罗锦路店)", "typecode": "060703", "cell_id": 6015, "wgs_lng": 121.394548, "wgs_lat": 31.123792}
{"id": "B0KGTRF36M", "name": "悠贝宠物(新梅广场店)", "typecode": "061211", "cell_id": 6015, "wgs_lng": 121.384789, "wgs_lat": 31.123749}
{"id": "B0K67R1FIU", "name": "张扬琴行(龙茗路店)", "typecode": "061200", "cell_id": 6015, "wgs_lng": 121.386736, "wgs_lat": 31.125617}
{"id": "B0I0VCB489", "name": "LAWSON罗森(文平公寓店)", "typecode": "060000", "cell_id": 6015, "wgs_lng": 121.389714, "wgs_lat": 31.122693}
{"id": "B0JGLAG03N", "name": "茶茶丸宠物洗澡·美容", "typecode": "061211", "cell_id": 6015, "wgs_lng": 121.385198, "wgs_lat": 31.12655}
{"id": "B0FFJE1KZ7", "name": "小佩宠物(报春店)", "typecode": "061211", "cell_id": 6015, "wgs_lng": 121.390065, "wgs_lat": 31.128015}
{"id": "B0FFGNUYVM", "name": "家家美门窗(莘光苑店)", "typecode": "060603", "cell_id": 6015, "wgs_lng": 121.385665, "wgs_lat": 31.127236}
{"id": "B00155EN6X", "name": "联华超市(花山店)", "typecode": "060400", "cell_id": 6015, "wgs_lng": 121.393894, "wgs_lat": 31.124251}
{"id": "B0LULM6D3B", "name": "又三喜ASANKI", "typecode": "060501", "cell_id": 6015, "wgs_lng": 121.386911, "wgs_lat": 31.125646}
{"id": "B0GKAA1R61", "name": "蒸汽酷玩POPSTEAM(龙茗路店)", "typecode": "061200", "cell_id": 6015, "wgs_lng": 121.386087, "wgs_lat": 31.12407}
{"id": "B00155QRXB", "name": "花息叶语美容养生(东苑绿世界花园北区店)", "typecode": "060501|071100", "cell_id": 6015, "wgs_lng": 121.388683, "wgs_lat": 31.127997}
{"id": "B0LG7U5KMI", "name": "隆图铝材(门窗)罗锦路店", "typecode": "060603", "cell_id": 6015, "wgs_lng": 121.392383, "wgs_lat": 31.124802}
{"id": "B00155EKTO", "name": "上海市康达冷饮批发部(罗阳七村三洲花园店)", "typecode": "060000", "cell_id": 6015, "wgs_lng": 121.393937, "wgs_lat": 31.127175}
{"id": "B00155MMNK", "name": "佳明通信(上海阳城店)", "typecode": "060305", "cell_id": 6015, "wgs_lng": 121.395115, "wgs_lat": 31.123628}
{"id": "B00150C14A", "name": "东方眼镜(东苑绿世界花园东区店)", "typecode": "061204", "cell_id": 6015, "wgs_lng": 121.38808, "wgs_lat": 31.127574}
{"id": "B0KKGL2HW1", "name": "捷强JOYMAX(报春二店)", "typecode": "061210", "cell_id": 6015, "wgs_lng": 121.385223, "wgs_lat": 31.126938}
{"id": "B0L16CSM42", "name": "满佳喜超市(上海店)", "typecode": "060400", "cell_id": 6015, "wgs_lng": 121.394881, "wgs_lat": 31.127108}
{"id": "B0FFF55V8V", "name": "爱森优选(罗阳七村三洲花园店)", "typecode": "061200", "cell_id": 6015, "wgs_lng": 121.393523, "wgs_lat": 31.124349}
{"id": "B0JUTZ1VGY", "name": "台铃电动车专卖店(龙茗路店)", "typecode": "061208", "cell_id": 6015, "wgs_lng": 121.385986, "wgs_lat": 31.126766}
{"id": "B0KB7ZLN1C", "name": "苹果花园", "typecode": "050000|060000", "cell_id": 6015, "wgs_lng": 121.394041, "wgs_lat": 31.124214}
{"id": "B0GU45U14S", "name": "御康果园(罗阳路店)", "typecode": "060704", "cell_id": 6015, "wgs_lng": 121.393393, "wgs_lat": 31.124383}
{"id": "B0JUH727S5", "name": "盒马旗下平价社区超市", "typecode": "060200", "cell_id": 6015, "wgs_lng": 121.386652, "wgs_lat": 31.127437}
{"id": "B001579FLZ", "name": "青水缘美甲美睫", "typecode": "071100|061200", "cell_id": 6015, "wgs_lng": 121.385477, "wgs_lat": 31.124028}
{"id": "B0L6OB4PZT", "name": "京东便利店(报春路店)", "typecode": "060200", "cell_id": 6015, "wgs_lng": 121.385189, "wgs_lat": 31.126549}
{"id": "B0K0LDTNAE", "name": "梦奇多生鲜(18号店)", "typecode": "060000", "cell_id": 6015, "wgs_lng": 121.392071, "wgs_lat": 31.124851}
{"id": "B0FFHGXC9H", "name": "酒老板(闵行店)", "typecode": "061210", "cell_id": 6015, "wgs_lng": 121.386898, "wgs_lat": 31.125534}
{"id": "B0015368EF", "name": "闪闪七彩窗帘店", "typecode": "061100", "cell_id": 6015, "wgs_lng": 121.395369, "wgs_lat": 31.123617}
{"id": "B0L24RP7CO", "name": "新世纪超市(便利店)", "typecode": "060200", "cell_id": 6015, "wgs_lng": 121.386397, "wgs_lat": 31.126211}
{"id": "B0FFIMCUVE", "name": "广丰源干货店(第98分店)", "typecode": "060703", "cell_id": 6015, "wgs_lng": 121.393293, "wgs_lat": 31.124409}
{"id": "B0L0A5CNKP", "name": "涵素阁新中式修面(莘庄店)", "typecode": "061100", "cell_id": 6015, "wgs_lng": 121.390014, "wgs_lat": 31.127689}
{"id": "B0JD2AKK7D", "name": "全场八折冷饮批发(景和茗苑店)", "typecode": "060000", "cell_id": 6015, "wgs_lng": 121.385535, "wgs_lat": 31.126716}
{"id": "B0LDV5686M", "name": "熙熙宠物生活馆", "typecode": "061211", "cell_id": 6015, "wgs_lng": 121.38783, "wgs_lat": 31.12763}
{"id": "B0L6YAIA4V", "name": "苹果园果品批发行(罗锦路店)", "typecode": "060704", "cell_id": 6015, "wgs_lng": 121.393728, "wgs_lat": 31.124289}
{"id": "B0LAOUQSP2", "name": "虹谨超市", "typecode": "060200", "cell_id": 6015, "wgs_lng": 121.394292, "wgs_lat": 31.126933}
{"id": "B0L6TD60YJ", "name": "欣梅园生鲜(报春路店)", "typecode": "060703", "cell_id": 6015, "wgs_lng": 121.385262, "wgs_lat": 31.126952}
{"id": "B0FFKET4PX", "name": "叮咚买菜(罗锦农贸市场店)", "typecode": "060705", "cell_id": 6015, "wgs_lng": 121.391514, "wgs_lat": 31.125133}
{"id": "B0KBS9DOVX", "name": "小张平价生鲜(罗阳七村三洲花园店)", "typecode": "060703", "cell_id": 6015, "wgs_lng": 121.392352, "wgs_lat": 31.124867}
{"id": "B0KGMZNIZE", "name": "佐奈美珍珠(衡园莘光里5号楼)", "typecode": "061202", "cell_id": 6015, "wgs_lng": 121.386954, "wgs_lat": 31.126392}
{"id": "B00155MN5C", "name": "尚绅体育·艺术中心(景和茗苑店)", "typecode": "060900|141400", "cell_id": 6015, "wgs_lng": 121.386105, "wgs_lat": 31.124566}
{"id": "B0HBBX7E1R", "name": "福多烟酒(龙茗路店)", "typecode": "061210", "cell_id": 6015, "wgs_lng": 121.386368, "wgs_lat": 31.124743}
{"id": "B0FFH17WVC", "name": "峰圩蔬菜(罗阳七村三洲花园店)", "typecode": "060705", "cell_id": 6015, "wgs_lng": 121.393353, "wgs_lat": 31.124393}
{"id": "B0FFI2BAGS", "name": "凤铝系统门窗", "typecode": "060603", "cell_id": 6015, "wgs_lng": 121.389861, "wgs_lat": 31.127752}
{"id": "B0FFMC1E3O", "name": "视光中心(东苑绿世界花园东区店)", "typecode": "061204", "cell_id": 6015, "wgs_lng": 121.388025, "wgs_lat": 31.127559}
{"id": "B0FFGNTNVV", "name": "来伊份(报春路店)", "typecode": "061200", "cell_id": 6015, "wgs_lng": 121.385464, "wgs_lat": 31.127044}
{"id": "B0G33MV1XR", "name": "莘庄盛达综合经营部(报春路店)", "typecode": "061210|060200", "cell_id": 6015, "wgs_lng": 121.389989, "wgs_lat": 31.128046}
{"id": "B0L66SLKN3", "name": "花间森林花艺生活馆", "typecode": "060501", "cell_id": 6015, "wgs_lng": 121.387477, "wgs_lat": 31.125906}
{"id": "B0FFKQHL70", "name": "悦欣鲜花礼品店", "typecode": "060501", "cell_id": 6015, "wgs_lng": 121.384793, "wgs_lat": 31.123809}
{"id": "B0LD4UO0Y0", "name": "安函玻璃店", "typecode": "060603", "cell_id": 6015, "wgs_lng": 121.394148, "wgs_lat": 31.127081}
{"id": "B0LUVXFI1K", "name": "阿忠奶站", "typecode": "060000", "cell_id": 6015, "wgs_lng": 121.38506, "wgs_lat": 31.126357}
{"id": "B0FFHHO6PF", "name": "杰宝大王电动车(龙茗路店)", "typecode": "061208", "cell_id": 6015, "wgs_lng": 121.3854, "wgs_lat": 31.124}
{"id": "B0MGRDK0A8", "name": "小满花艺", "typecode": "060501", "cell_id": 6015, "wgs_lng": 121.387135, "wgs_lat": 31.126416}
{"id": "B00155G1W8", "name": "来伊份(罗锦路店)", "typecode": "061200", "cell_id": 6015, "wgs_lng": 121.394996, "wgs_lat": 31.123685}
{"id": "B0LR7UI7SS", "name": "鲜花坊", "typecode": "060501", "cell_id": 6015, "wgs_lng": 121.384968, "wgs_lat": 31.126325}
{"id": "B0KRNNGCDY", "name": "木木夕(罗锦路店)", "typecode": "061100", "cell_id": 6015, "wgs_lng": 121.391572, "wgs_lat": 31.124887}
{"id": "B0IUO59K9O", "name": "极地优品(报春路店)", "typecode": "060000", "cell_id": 6015, "wgs_lng": 121.387202, "wgs_lat": 31.12726}
{"id": "B0FFFDIP80", "name": "福商食品店", "typecode": "060200", "cell_id": 6015, "wgs_lng": 121.385117, "wgs_lat": 31.126347}
{"id": "B0MGABBXXG", "name": "栗小胖糖炒栗子烤红薯", "typecode": "060704", "cell_id": 6015, "wgs_lng": 121.393833, "wgs_lat": 31.125514}
{"id": "B0GUYX5T1P", "name": "锦敏食品烟酒(上海罗锦路店)", "typecode": "061210|060200", "cell_id": 6015, "wgs_lng": 121.394583, "wgs_lat": 31.124074}
{"id": "B001556VS9", "name": "丰丰玻璃", "typecode": "060603", "cell_id": 6015, "wgs_lng": 121.39401, "wgs_lat": 31.124222}
{"id": "B0HGDK5Z87", "name": "优黎.BE", "typecode": "061100", "cell_id": 6015, "wgs_lng": 121.38939, "wgs_lat": 31.12782}
{"id": "B0FFHBUCWQ", "name": "铭慧烟酒店(东苑绿世界花园店)", "typecode": "061210", "cell_id": 6015, "wgs_lng": 121.388751, "wgs_lat": 31.128013}
{"id": "B0FFLF7B6E", "name": "老吴门窗(上海阳城店)", "typecode": "060603", "cell_id": 6015, "wgs_lng": 121.390716, "wgs_lat": 31.124224}
{"id": "B0J1KC7EYC", "name": "氿朵鲜花店(东苑绿世界花园店)", "typecode": "060501", "cell_id": 6015, "wgs_lng": 121.389548, "wgs_lat": 31.127836}
{"id": "B0LD0Z7DSU", "name": "农夫山泉(莘光里店)", "typecode": "061200", "cell_id": 6015, "wgs_lng": 121.387036, "wgs_lat": 31.126016}
{"id": "B0K6SM4301", "name": "优美安选(上海阳城店)", "typecode": "060000", "cell_id": 6015, "wgs_lng": 121.394764, "wgs_lat": 31.123793}
{"id": "B0015706PF", "name": "佳佳便利店(东苑佳佳花园店)", "typecode": "060200", "cell_id": 6015, "wgs_lng": 121.387141, "wgs_lat": 31.127661}
{"id": "B0FFLFR6SA", "name": "冷饮批发", "typecode": "060000", "cell_id": 6015, "wgs_lng": 121.393977, "wgs_lat": 31.12423}
{"id": "B001579PQ1", "name": "安娜(景和茗苑店)", "typecode": "061209", "cell_id": 6015, "wgs_lng": 121.386003, "wgs_lat": 31.126719}
{"id": "B0KU6S1U3C", "name": "快乐小家生活馆", "typecode": "060000", "cell_id": 6015, "wgs_lng": 121.391924, "wgs_lat": 31.124802}
{"id": "B0LKB6SIID", "name": "宠顺达宠物用品店", "typecode": "061211", "cell_id": 6015, "wgs_lng": 121.384911, "wgs_lat": 31.12603}
{"id": "B0M6J6B9G0", "name": "萌爪岛·宠物用品店(龙茗路店)", "typecode": "061211", "cell_id": 6015, "wgs_lng": 121.387086, "wgs_lat": 31.126016}
{"id": "B0L2S55CN4", "name": "农品印记", "typecode": "060000", "cell_id": 6015, "wgs_lng": 121.392493, "wgs_lat": 31.124622}
{"id": "B0LKR65LGH", "name": "亚宝生活馆(罗锦农贸市场店)", "typecode": "060000", "cell_id": 6015, "wgs_lng": 121.391963, "wgs_lat": 31.124763}
{"id": "B0L0TN8N4K", "name": "粒之园零食坚果炒货", "typecode": "060704", "cell_id": 6015, "wgs_lng": 121.385376, "wgs_lat": 31.126918}
{"id": "B0L6CRPI80", "name": "厚博严选食品", "typecode": "060000", "cell_id": 6015, "wgs_lng": 121.393101, "wgs_lat": 31.124456}
{"id": "B0LK5RTN0K", "name": "天天鲜生鲜超市", "typecode": "060703", "cell_id": 6015, "wgs_lng": 121.385695, "wgs_lat": 31.126791}
{"id": "B0LG4HB6MO", "name": "食养心选体验馆", "typecode": "060000", "cell_id": 6015, "wgs_lng": 121.392338, "wgs_lat": 31.124653}
{"id": "B0L2UREZ9L", "name": "大美兵团", "typecode": "060000", "cell_id": 6015, "wgs_lng": 121.392322, "wgs_lat": 31.124757}
{"id": "B0LGGSYRF2", "name": "罗锦市集", "typecode": "060000", "cell_id": 6015, "wgs_lng": 121.391834, "wgs_lat": 31.125015}
{"id": "B0KDVYS2X1", "name": "东来玉器", "typecode": "061202", "cell_id": 6015, "wgs_lng": 121.390544, "wgs_lat": 31.124048}
{"id": "B0FFMBFXH0", "name": "余梵外贸服饰工厂店", "typecode": "061100", "cell_id": 6015, "wgs_lng": 121.392437, "wgs_lat": 31.124642}
{"id": "B0FFFOGRTS", "name": "和鞋生活(罗阳店)(暂停营业)", "typecode": "061100", "cell_id": 6015, "wgs_lng": 121.395136, "wgs_lat": 31.123947}
{"id": "B0LDLBNMSE", "name": "嘉禾收藏", "typecode": "061201", "cell_id": 6015, "wgs_lng": 121.392684, "wgs_lat": 31.124575}
{"id": "B0G3UMZ9MU", "name": "象山特产(莘光苑店)", "typecode": "061200", "cell_id": 6015, "wgs_lng": 121.385196, "wgs_lat": 31.126924}
{"id": "B0FFFOUL6W", "name": "mina(梅陇西路店)", "typecode": "061100", "cell_id": 6015, "wgs_lng": 121.390393, "wgs_lat": 31.123803}
{"id": "B0LD3ZI07M", "name": "飞翼生鲜生态黑毛猪(报春路店)", "typecode": "060703", "cell_id": 6015, "wgs_lng": 121.385691, "wgs_lat": 31.126761}
{"id": "B0KBKXFIM7", "name": "only+you家(罗锦路店)", "typecode": "060000", "cell_id": 6015, "wgs_lng": 121.395365, "wgs_lat": 31.123591}
{"id": "B0M6XHQ87R", "name": "桃喜美妆·化妆造型跟妆工作室", "typecode": "061400|071100", "cell_id": 6015, "wgs_lng": 121.386786, "wgs_lat": 31.126116}
{"id": "B0LKNLQY1P", "name": "汇百佳生鲜(莘庄镇店)", "typecode": "060703", "cell_id": 6015, "wgs_lng": 121.385336, "wgs_lat": 31.127067}
{"id": "B0LKDBLNSZ", "name": "百威啤酒官方旗舰店(莘庄店)", "typecode": "061210", "cell_id": 6015, "wgs_lng": 121.389884, "wgs_lat": 31.127714}
{"id": "B0M6J6BFFM", "name": "家有囍事鲜花婚庆(外环店)", "typecode": "061209", "cell_id": 6015, "wgs_lng": 121.39433, "wgs_lat": 31.124156}
{"id": "B0FFGOYEWA", "name": "旭丰百货便利店", "typecode": "060200", "cell_id": 6015, "wgs_lng": 121.393192, "wgs_lat": 31.122083}
{"id": "B0LR3HC4JB", "name": "惠立送精品超市(报春路店)", "typecode": "060000", "cell_id": 6015, "wgs_lng": 121.385191, "wgs_lat": 31.126546}
{"id": "B0L6TDWB1K", "name": "购缘专业化定制", "typecode": "060000|070000", "cell_id": 6015, "wgs_lng": 121.392443, "wgs_lat": 31.124971}
{"id": "B0MU4M94YJ", "name": "酒老板(报春路一店)", "typecode": "061210", "cell_id": 6015, "wgs_lng": 121.385296, "wgs_lat": 31.126926}
{"id": "B0HU76V990", "name": "百顺蔬菜", "typecode": "060705", "cell_id": 6015, "wgs_lng": 121.38482, "wgs_lat": 31.126396}
{"id": "B0LKDPM9SJ", "name": "可丽伶美瞳隐形集合(衡园莘光里店)", "typecode": "061200", "cell_id": 6015, "wgs_lng": 121.386536, "wgs_lat": 31.126067}
{"id": "B0LK1ZDIKS", "name": "STANCE", "typecode": "060000", "cell_id": 6015, "wgs_lng": 121.386454, "wgs_lat": 31.126211}
{"id": "B0K0VKEJNW", "name": "清美集团清美鲜食(报春路三店)", "typecode": "060703|060400", "cell_id": 6015, "wgs_lng": 121.387992, "wgs_lat": 31.127534}
{"id": "B0LK1XE8FO", "name": "上海王莹", "typecode": "060000", "cell_id": 6015, "wgs_lng": 121.389746, "wgs_lat": 31.127798}
{"id": "B0M6XMNRG8", "name": "九华山土特产", "typecode": "061214", "cell_id": 6015, "wgs_lng": 121.384787, "wgs_lat": 31.123769}
{"id": "B0M6XMNRG8", "name": "九华山土特产", "typecode": "061214", "cell_id": 6015, "wgs_lng": 121.384787, "wgs_lat": 31.123769}
{"id": "B0FFHWWO3S", "name": "南汇蔬菜(报春路店)", "typecode": "060705", "cell_id": 6015, "wgs_lng": 121.38518, "wgs_lat": 31.126917}
{"id": "B0LGF6M2RW", "name": "洋洋优选", "typecode": "060200", "cell_id": 6015, "wgs_lng": 121.389989, "wgs_lat": 31.128046}
{"id": "B0MB6LO7SU", "name": "一语花香鲜花店", "typecode": "060501", "cell_id": 6015, "wgs_lng": 121.385187, "wgs_lat": 31.126517}
{"id": "B0M69S9D6W", "name": "桐乡蚕丝被", "typecode": "060600", "cell_id": 6015, "wgs_lng": 121.39287, "wgs_lat": 31.124538}
{"id": "B0I1VDZDUT", "name": "博信精品门窗(东苑绿世界花园东区店)", "typecode": "060603", "cell_id": 6015, "wgs_lng": 121.389861, "wgs_lat": 31.127752}
{"id": "B0LKH9R5FE", "name": "清美豆制品", "typecode": "060703", "cell_id": 6015, "wgs_lng": 121.385037, "wgs_lat": 31.126517}
{"id": "B0L3MUKQ4D", "name": "汎朵", "typecode": "060000", "cell_id": 6015, "wgs_lng": 121.389563, "wgs_lat": 31.127851}
{"id": "B0MG3M9ADY", "name": "CZBANK", "typecode": "061100", "cell_id": 6015, "wgs_lng": 121.386272, "wgs_lat": 31.126901}
{"id": "B0MBYA561H", "name": "铭意烟酒店", "typecode": "061210", "cell_id": 6015, "wgs_lng": 121.388597, "wgs_lat": 31.127976}
{"id": "B0L2MUZ1ZB", "name": "小艾精品水产", "typecode": "060706", "cell_id": 6015, "wgs_lng": 121.385423, "wgs_lat": 31.126667}
{"id": "B0FFIBLQ8X", "name": "百脑汇(中金国际广场店)", "typecode": "060306", "cell_id": 6530, "wgs_lng": 121.433869, "wgs_lat": 31.192519}
{"id": "B0FFI9ZX8O", "name": "南洋1931", "typecode": "060100", "cell_id": 6530, "wgs_lng": 121.428921, "wgs_lat": 31.187803}
{"id": "B00151CC90", "name": "飞洲国际广场(零陵路)", "typecode": "060101", "cell_id": 6530, "wgs_lng": 121.432937, "wgs_lat": 31.185128}
{"id": "B0FFLCV8CP", "name": "华为授权服务中心(徐汇漕溪北路)", "typecode": "060305|071200", "cell_id": 6530, "wgs_lng": 121.432708, "wgs_lat": 31.189553}
{"id": "B0FFKZ2D7R", "name": "画家街", "typecode": "061000|141400", "cell_id": 6530, "wgs_lng": 121.427505, "wgs_lat": 31.187663}
{"id": "B0I1NS5P7A", "name": "都市奥特莱斯(上海飞洲国际广场店)", "typecode": "060000", "cell_id": 6530, "wgs_lng": 121.433325, "wgs_lat": 31.185237}
{"id": "B0FFJ0DDIZ", "name": "盒马鲜生(南洋1931店)", "typecode": "060400", "cell_id": 6530, "wgs_lng": 121.429372, "wgs_lat": 31.187519}
{"id": "B00155LB2F", "name": "BUY NOW", "typecode": "060102", "cell_id": 6530, "wgs_lng": 121.433609, "wgs_lat": 31.192467}
{"id": "B0IGNSZ2EN", "name": "荣耀官方授权服务中心(徐汇漕溪北路店)", "typecode": "060305", "cell_id": 6530, "wgs_lng": 121.432924, "wgs_lat": 31.190439}
{"id": "B00155LAXP", "name": "文定生活", "typecode": "060600|120000", "cell_id": 6530, "wgs_lng": 121.426725, "wgs_lat": 31.186928}
{"id": "B0FFKH68H7", "name": "诺贝尔瓷砖设计体验中心(徐汇店)", "typecode": "060603", "cell_id": 6530, "wgs_lng": 121.426505, "wgs_lat": 31.185062}
{"id": "B00155QBT6", "name": "中国电信宽带指定受理(蒲汇塘路63号)", "typecode": "070601|060305|170208", "cell_id": 6530, "wgs_lng": 121.432665, "wgs_lat": 31.185709}
{"id": "B0FFHDAH4S", "name": "OPPO官方授权体验店(上海徐汇区百脑汇店)", "typecode": "060305", "cell_id": 6530, "wgs_lng": 121.433869, "wgs_lat": 31.192519}
{"id": "B0L2SU5JJ1", "name": "盛源大地家居城", "typecode": "060000", "cell_id": 6530, "wgs_lng": 121.427162, "wgs_lat": 31.189151}
{"id": "B0JKDZ1S21", "name": "OPPO官方授权服务体验中心(上海徐汇区上海电影广场店)", "typecode": "060305", "cell_id": 6530, "wgs_lng": 121.433752, "wgs_lat": 31.188471}
{"id": "B0FFLLAAW9", "name": "小隆台(南洋1931店)", "typecode": "060706", "cell_id": 6530, "wgs_lng": 121.42811, "wgs_lat": 31.187971}
{"id": "B0FFGY7KE9", "name": "戴尔微星微软授权服务中心(明申中心大厦店)", "typecode": "060306", "cell_id": 6530, "wgs_lng": 121.428034, "wgs_lat": 31.183548}
{"id": "B0FFJ5MWU4", "name": "小季橱柜(汇鑫国际1号楼店)", "typecode": "060604", "cell_id": 6530, "wgs_lng": 121.426023, "wgs_lat": 31.189333}
{"id": "B00156YLIS", "name": "佰丽爱家全屋定制徐汇旗舰店", "typecode": "060604", "cell_id": 6530, "wgs_lng": 121.426164, "wgs_lat": 31.184482}
{"id": "B0KKVR5PSN", "name": "窗里门窗", "typecode": "060600", "cell_id": 6530, "wgs_lng": 121.426725, "wgs_lat": 31.186928}
{"id": "B0FFKZ2CB5", "name": "文玩街", "typecode": "061000", "cell_id": 6530, "wgs_lng": 121.427585, "wgs_lat": 31.187878}
{"id": "B001572WW4", "name": "舒达床垫(盛源大地店)", "typecode": "060602", "cell_id": 6530, "wgs_lng": 121.42786, "wgs_lat": 31.188934}
{"id": "B0L02HN4VK", "name": "DJI大疆授权体验专区(百脑汇店)", "typecode": "060306", "cell_id": 6530, "wgs_lng": 121.433869, "wgs_lat": 31.192519}
{"id": "B00155IVT9", "name": "全家便利店(玉兰花苑店)", "typecode": "060200", "cell_id": 6530, "wgs_lng": 121.430188, "wgs_lat": 31.188248}
{"id": "B0FFGL0XE6", "name": "波涛家居建材广场", "typecode": "060602", "cell_id": 6530, "wgs_lng": 121.426815, "wgs_lat": 31.183653}
{"id": "B0H605JRKR", "name": "好莱客(徐汇总店)", "typecode": "060000", "cell_id": 6530, "wgs_lng": 121.427162, "wgs_lat": 31.189151}
{"id": "B0JDT94SQP", "name": "李宁羽毛球专卖店(万体馆店)", "typecode": "060000", "cell_id": 6530, "wgs_lng": 121.432644, "wgs_lat": 31.186607}
{"id": "B0LRKDINHZ", "name": "慕思床垫睡眠定制(盛源大地家具城店)", "typecode": "061301|060600", "cell_id": 6530, "wgs_lng": 121.42783, "wgs_lat": 31.188341}
{"id": "B0HRF12HUX", "name": "SpreadTheBagel(南洋1931)", "typecode": "060000", "cell_id": 6530, "wgs_lng": 121.428811, "wgs_lat": 31.18764}
{"id": "B0LB9UWD2V", "name": "华耐家居法恩莎卫浴(上海旗舰店)", "typecode": "060000", "cell_id": 6530, "wgs_lng": 121.426457, "wgs_lat": 31.185629}
{"id": "B0FFHI50F4", "name": "任天堂switch专卖店", "typecode": "060306", "cell_id": 6530, "wgs_lng": 121.433734, "wgs_lat": 31.192565}
{"id": "B0M657JEVY", "name": "佳能认证店(上海逸明)", "typecode": "060300", "cell_id": 6530, "wgs_lng": 121.433771, "wgs_lat": 31.192562}
{"id": "B0FFI92JRC", "name": "上海技嘉AORUS百脑汇旗舰店", "typecode": "060306", "cell_id": 6530, "wgs_lng": 121.433655, "wgs_lat": 31.192371}
{"id": "B0MGLKLT45", "name": "华为授权体验店(漕溪北路)", "typecode": "060305", "cell_id": 6530, "wgs_lng": 121.432739, "wgs_lat": 31.189723}
{"id": "B0KGSSI93V", "name": "Uwill有为健身俱乐部", "typecode": "080111|060000", "cell_id": 6530, "wgs_lng": 121.435583, "wgs_lat": 31.191239}
{"id": "B0FFKDTD0P", "name": "DJI大疆授权专区(上海南洋1931店)", "typecode": "060306", "cell_id": 6530, "wgs_lng": 121.428303, "wgs_lat": 31.187795}
{"id": "B0JBH7ZIQX", "name": "尤尼克斯(零陵路店)", "typecode": "060900", "cell_id": 6530, "wgs_lng": 121.434633, "wgs_lat": 31.185441}
{"id": "B0IKP5WZWQ", "name": "铂金世家全屋定制(泰德花苑店)", "typecode": "061202|060600", "cell_id": 6530, "wgs_lng": 121.427068, "wgs_lat": 31.186294}
{"id": "B0KKC7I429", "name": "影石Insta360上海百脑汇店", "typecode": "060306", "cell_id": 6530, "wgs_lng": 121.433732, "wgs_lat": 31.192539}
{"id": "B0KUUSUG7X", "name": "AUPU奥普浴霸(宜山路喜盈门潮流馆)", "typecode": "060604|060603", "cell_id": 6530, "wgs_lng": 121.426078, "wgs_lat": 31.189881}
{"id": "B0JGS7G7LF", "name": "步阳安全门(盛源大地店)", "typecode": "060603", "cell_id": 6530, "wgs_lng": 121.427588, "wgs_lat": 31.188709}
{"id": "B0FFHDB6FL", "name": "樱木全屋定制", "typecode": "060600", "cell_id": 6530, "wgs_lng": 121.426919, "wgs_lat": 31.185086}
{"id": "B0G1L55WL2", "name": "文石BOOX官方授权体验店", "typecode": "060000", "cell_id": 6530, "wgs_lng": 121.433729, "wgs_lat": 31.192559}
{"id": "B0KUS743ES", "name": "MCAA当代艺术学院", "typecode": "060000", "cell_id": 6530, "wgs_lng": 121.426174, "wgs_lat": 31.18799}
{"id": "B0H067FZKH", "name": "泰普尔床垫(徐汇文定生活旗舰店)", "typecode": "060600|170200", "cell_id": 6530, "wgs_lng": 121.427064, "wgs_lat": 31.186716}
{"id": "B0FFLF6TBE", "name": "KING LIVING(泰德花苑店)", "typecode": "060602", "cell_id": 6530, "wgs_lng": 121.427231, "wgs_lat": 31.186613}
{"id": "B0FFJGEPMP", "name": "联华超市(南丹店)", "typecode": "060200", "cell_id": 6530, "wgs_lng": 121.428308, "wgs_lat": 31.191339}
{"id": "B0FFIZAKKW", "name": "微软Surface&XBOX专卖店", "typecode": "060306", "cell_id": 6530, "wgs_lng": 121.433627, "wgs_lat": 31.192523}
{"id": "B0K32BBSOG", "name": "好特卖HotMaxx(飞洲国际广场店)", "typecode": "060000", "cell_id": 6530, "wgs_lng": 121.433417, "wgs_lat": 31.185124}
{"id": "B0FFMDS49V", "name": "FUJIFILM富士相机专卖店(上海熙秉)", "typecode": "060306|061212", "cell_id": 6530, "wgs_lng": 121.433841, "wgs_lat": 31.192581}
{"id": "B0LD4SO0II", "name": "VIDAR维达北美硬木地板(工厂店)", "typecode": "060000", "cell_id": 6530, "wgs_lng": 121.426733, "wgs_lat": 31.185549}
{"id": "B00154DO4X", "name": "全家便利店(亚都店)", "typecode": "060200", "cell_id": 6530, "wgs_lng": 121.434148, "wgs_lat": 31.190575}
{"id": "B0015563N0", "name": "顾家家居(盛源大地店)", "typecode": "060602", "cell_id": 6530, "wgs_lng": 121.427647, "wgs_lat": 31.188668}
{"id": "B0LASA1NAY", "name": "Wilson万体店", "typecode": "060900", "cell_id": 6530, "wgs_lng": 121.434603, "wgs_lat": 31.185471}
{"id": "B0FFKFKOXQ", "name": "ROG玩家国度(百脑汇店)", "typecode": "060306", "cell_id": 6530, "wgs_lng": 121.433807, "wgs_lat": 31.192595}
{"id": "B0IKUH0MM1", "name": "Wilson欣林田体育(漕溪北路店)", "typecode": "060900", "cell_id": 6530, "wgs_lng": 121.432405, "wgs_lat": 31.186498}
{"id": "B0J6GUKP4A", "name": "Wacom上海官方店", "typecode": "060000", "cell_id": 6530, "wgs_lng": 121.433456, "wgs_lat": 31.192563}
{"id": "B0KAGPPQ9H", "name": "超视立远近一体镜专业定制中心(上海徐汇店)", "typecode": "061204", "cell_id": 6530, "wgs_lng": 121.432757, "wgs_lat": 31.189818}
{"id": "B0FFGKWK46", "name": "链家地产亚都店", "typecode": "071600|060000", "cell_id": 6530, "wgs_lng": 121.433606, "wgs_lat": 31.190856}
{"id": "B0L2FU29VD", "name": "卢森地板旗舰店", "typecode": "060603", "cell_id": 6530, "wgs_lng": 121.426725, "wgs_lat": 31.186928}
{"id": "B0J36DEKG7", "name": "阳耀系统门窗", "typecode": "060000", "cell_id": 6530, "wgs_lng": 121.425978, "wgs_lat": 31.190323}
{"id": "B0L2M7Z2UX", "name": "德国威能·采暖·新风(天合蒲汇塘店)", "typecode": "060604", "cell_id": 6530, "wgs_lng": 121.426076, "wgs_lat": 31.189474}
{"id": "B0HG04UC83", "name": "美心木门(盛源大地家居城店)", "typecode": "060603", "cell_id": 6530, "wgs_lng": 121.427151, "wgs_lat": 31.1888}
{"id": "B00155M3PX", "name": "TATA木门(上海家饰佳2店)", "typecode": "061102", "cell_id": 6530, "wgs_lng": 121.432561, "wgs_lat": 31.184937}
{"id": "B0FFFX8A54", "name": "凤铝门窗", "typecode": "060603", "cell_id": 6530, "wgs_lng": 121.427212, "wgs_lat": 31.188818}
{"id": "B0I2BAUTTN", "name": "世宅全屋定制·硬装局改·整装(徐汇店)", "typecode": "060000", "cell_id": 6530, "wgs_lng": 121.427379, "wgs_lat": 31.188743}
{"id": "B0KRPCNEOD", "name": "Bowers&Wilkins音响(徐家汇店)", "typecode": "060000", "cell_id": 6530, "wgs_lng": 121.433786, "wgs_lat": 31.192507}
{"id": "B0G12NJSYD", "name": "丝涟床垫(盛源大地家居城)店", "typecode": "060600", "cell_id": 6530, "wgs_lng": 121.427923, "wgs_lat": 31.188722}
{"id": "B0J02HJHGF", "name": "玉东山·大理石·岩板", "typecode": "060603", "cell_id": 6530, "wgs_lng": 121.427516, "wgs_lat": 31.188352}
{"id": "B0HAFUTRLH", "name": "欧美佳电smeg(旗舰店)", "typecode": "060300", "cell_id": 6530, "wgs_lng": 121.427133, "wgs_lat": 31.184515}
{"id": "B0FFHC0H3P", "name": "一凡画廊(大地大楼店)", "typecode": "061201", "cell_id": 6530, "wgs_lng": 121.426878, "wgs_lat": 31.187849}
{"id": "B0LRZ538J4", "name": "十里眼镜(博大商务楼店)", "typecode": "061204", "cell_id": 6530, "wgs_lng": 121.431301, "wgs_lat": 31.188266}
{"id": "B0JRUA3N9D", "name": "温馨家木门(盛源大地店)", "typecode": "060603", "cell_id": 6530, "wgs_lng": 121.427336, "wgs_lat": 31.188773}
{"id": "B0FFG4E5XC", "name": "缘木居(文定路店)", "typecode": "060602", "cell_id": 6530, "wgs_lng": 121.427795, "wgs_lat": 31.188327}
{"id": "B0I2BDZN72", "name": "Apple(百脑汇店)", "typecode": "060306", "cell_id": 6530, "wgs_lng": 121.434012, "wgs_lat": 31.192558}
{"id": "B0G12NJLHK", "name": "龙凤床垫(上海盛源大地家居城店)", "typecode": "060602", "cell_id": 6530, "wgs_lng": 121.427616, "wgs_lat": 31.188612}
{"id": "B0FFGPTHUZ", "name": "天洋墙布-窗帘(宜山路旗舰店)", "typecode": "060603", "cell_id": 6530, "wgs_lng": 121.425796, "wgs_lat": 31.18961}
{"id": "B0KAB73YOS", "name": "三棵树小森板定制家居生活馆(徐汇店)", "typecode": "060600", "cell_id": 6530, "wgs_lng": 121.427903, "wgs_lat": 31.188826}
{"id": "B0LAMXCDTF", "name": "爱得家适老化卫浴空间", "typecode": "060604", "cell_id": 6530, "wgs_lng": 121.426041, "wgs_lat": 31.189402}
{"id": "B0I195VNHV", "name": "上海美佳布洛窗帘墙布(盛源大地家居城店)", "typecode": "060605", "cell_id": 6530, "wgs_lng": 121.426965, "wgs_lat": 31.189028}
{"id": "B0FFG9505T", "name": "半木之家(文定生活店)", "typecode": "060602", "cell_id": 6530, "wgs_lng": 121.426091, "wgs_lat": 31.186968}
{"id": "B0FFI9CPQR", "name": "千言正茶馆", "typecode": "061200", "cell_id": 6530, "wgs_lng": 121.436309, "wgs_lat": 31.189726}
{"id": "B0FFGOHFJ2", "name": "美津浓(飞洲国际广场店)", "typecode": "060900", "cell_id": 6530, "wgs_lng": 121.43261, "wgs_lat": 31.18501}
{"id": "B0K0K5CW4Q", "name": "海信专卖店(徐汇百脑汇店)", "typecode": "060300", "cell_id": 6530, "wgs_lng": 121.433807, "wgs_lat": 31.192595}
{"id": "B0FFJRTSB8", "name": "至臻视界(汇鑫国际店)", "typecode": "061204", "cell_id": 6530, "wgs_lng": 121.425781, "wgs_lat": 31.189312}
{"id": "B0FFF01L6V", "name": "乐家(大华汇智大厦店)", "typecode": "060603", "cell_id": 6530, "wgs_lng": 121.431933, "wgs_lat": 31.189717}
{"id": "B0FFHOSK69", "name": "MLB(飞洲国际广场)", "typecode": "060900", "cell_id": 6530, "wgs_lng": 121.433372, "wgs_lat": 31.185178}
{"id": "B0FFLF1HJZ", "name": "DELL戴尔数码配件", "typecode": "060200", "cell_id": 6530, "wgs_lng": 121.43263, "wgs_lat": 31.191826}
{"id": "B00155QFVI", "name": "联华超市(天钥桥路店)", "typecode": "060400", "cell_id": 6530, "wgs_lng": 121.43511, "wgs_lat": 31.18948}
{"id": "B0KGO7I5HN", "name": "小米之家(徐汇区南洋1931专卖店)", "typecode": "060306", "cell_id": 6530, "wgs_lng": 121.428553, "wgs_lat": 31.187803}
{"id": "B0JR97H48T", "name": "科大讯飞AI学习机专卖店(徐汇百脑汇店)", "typecode": "060306", "cell_id": 6530, "wgs_lng": 121.433771, "wgs_lat": 31.192326}
{"id": "B0JDCX1G9A", "name": "汇鑫五金建材(宜山路店)", "typecode": "060603", "cell_id": 6530, "wgs_lng": 121.42588, "wgs_lat": 31.192259}
{"id": "B0FFHOKMPS", "name": "B&O耳机音响(百脑汇店)", "typecode": "061200", "cell_id": 6530, "wgs_lng": 121.433786, "wgs_lat": 31.192507}
{"id": "B0I246AZRJ", "name": "VOGUE风尚秀美发店", "typecode": "061100|071100", "cell_id": 6530, "wgs_lng": 121.433113, "wgs_lat": 31.190741}
{"id": "B0FFKTRTAT", "name": "HIBIYA KADAN日比谷花壇(南洋1931店)", "typecode": "060501", "cell_id": 6530, "wgs_lng": 121.428189, "wgs_lat": 31.187902}
{"id": "B0FFJ0NG63", "name": "ASICS 亚瑟士(飞洲国际广场店)", "typecode": "060900", "cell_id": 6530, "wgs_lng": 121.433198, "wgs_lat": 31.185202}
{"id": "B0L2FH1ESM", "name": "华硕电脑(中金国际广场店)", "typecode": "060306", "cell_id": 6530, "wgs_lng": 121.433727, "wgs_lat": 31.192368}
{"id": "B0KR79NGV7", "name": "Mingle art软装定制", "typecode": "060603", "cell_id": 6530, "wgs_lng": 121.426133, "wgs_lat": 31.187049}
{"id": "B0IA35YKIV", "name": "奔昊斯设计·全屋定制(众新商务楼店)", "typecode": "060600|070000", "cell_id": 6530, "wgs_lng": 121.425992, "wgs_lat": 31.185533}
{"id": "B0FFF6XFL3", "name": "戴尔x外星人电脑-销售与售后一体式服务中心", "typecode": "060306", "cell_id": 6530, "wgs_lng": 121.433733, "wgs_lat": 31.192451}
{"id": "B0KDKSLQ6C", "name": "L&D唯美陶瓷(凯旋路店)瓷砖岩板", "typecode": "060603", "cell_id": 6530, "wgs_lng": 121.427515, "wgs_lat": 31.18416}
{"id": "B0L0GH2ZK3", "name": "LAWSON罗森(文定路店)", "typecode": "060200", "cell_id": 6530, "wgs_lng": 121.428266, "wgs_lat": 31.187381}
{"id": "B0KGAMTS4X", "name": "鸿漾科技上海(徐汇店)", "typecode": "060000", "cell_id": 6530, "wgs_lng": 121.433864, "wgs_lat": 31.192495}
{"id": "B0I0GRF53L", "name": "FIBONACCI宝窝家居", "typecode": "060602", "cell_id": 6530, "wgs_lng": 121.427022, "wgs_lat": 31.186627}
{"id": "B0JUHSRMVW", "name": "德国ADM亚德曼保险柜·安全屋(文定生活店)", "typecode": "060000", "cell_id": 6530, "wgs_lng": 121.427253, "wgs_lat": 31.187172}
{"id": "B00155L9X9", "name": "华联超市(零陵路店)", "typecode": "060405", "cell_id": 6530, "wgs_lng": 121.43574, "wgs_lat": 31.185937}
{"id": "B0FFGY6L8L", "name": "爱舒床垫(盛源大地家居城店)", "typecode": "060602", "cell_id": 6530, "wgs_lng": 121.426869, "wgs_lat": 31.189234}
{"id": "B0JDB5H3F0", "name": "闲鱼回收二手手机店", "typecode": "060000", "cell_id": 6530, "wgs_lng": 121.428522, "wgs_lat": 31.187911}
{"id": "B0H1U10PMO", "name": "LAWSON罗森(上海电影广场店)", "typecode": "060200", "cell_id": 6530, "wgs_lng": 121.433321, "wgs_lat": 31.188598}
{"id": "B0G335XMSN", "name": "喜士多便利店(南丹东路店)", "typecode": "060200", "cell_id": 6530, "wgs_lng": 121.434084, "wgs_lat": 31.191241}
{"id": "B0I2UZS3R0", "name": "宠物家(天钥桥店)", "typecode": "060000", "cell_id": 6530, "wgs_lng": 121.434549, "wgs_lat": 31.189411}
{"id": "B0FFH9U0W4", "name": "清美生鲜(裕德路店)", "typecode": "060000", "cell_id": 6530, "wgs_lng": 121.430427, "wgs_lat": 31.187087}
{"id": "B0IU7DKNH6", "name": "全家便利店(漕溪北路七店)", "typecode": "060200", "cell_id": 6530, "wgs_lng": 121.432537, "wgs_lat": 31.18649}
{"id": "B0FFHYJJ9M", "name": "大金空调PROSHOP专业店(蒲汇塘路店)", "typecode": "060300", "cell_id": 6530, "wgs_lng": 121.426045, "wgs_lat": 31.189494}
{"id": "B0015577TQ", "name": "家乐五金(裕德路店)", "typecode": "060603", "cell_id": 6530, "wgs_lng": 121.430274, "wgs_lat": 31.186739}
{"id": "B0FFF3IXQE", "name": "SKECHERS 斯凯奇(飞洲国际广场店)", "typecode": "060900", "cell_id": 6530, "wgs_lng": 121.433362, "wgs_lat": 31.18514}
{"id": "B0FFHU6B93", "name": "耐克Nike(飞洲国际广场店)", "typecode": "060902", "cell_id": 6530, "wgs_lng": 121.433327, "wgs_lat": 31.185067}
{"id": "B0LGSC1O8R", "name": "PINQIAO品桥全屋定制", "typecode": "060000", "cell_id": 6530, "wgs_lng": 121.4267, "wgs_lat": 31.18755}
{"id": "B0LGLRKFQR", "name": "一水间(中金国际广场店)", "typecode": "060501", "cell_id": 6530, "wgs_lng": 121.433869, "wgs_lat": 31.192519}
{"id": "B0MGBMSYEM", "name": "喜士多便利店(文定1A店)", "typecode": "060200", "cell_id": 6530, "wgs_lng": 121.427325, "wgs_lat": 31.18679}
{"id": "B0L6X93K1M", "name": "卡萨帝旗舰店(盛源大地店)", "typecode": "060300", "cell_id": 6530, "wgs_lng": 121.427453, "wgs_lat": 31.18853}
{"id": "B0LU5UPQ24", "name": "GRAVITY地心引力品牌体验店(文定路店)", "typecode": "060000", "cell_id": 6530, "wgs_lng": 121.427609, "wgs_lat": 31.187922}
{"id": "B0FFHD9BPS", "name": "A.O.史密斯(徐汇凯旋路店)", "typecode": "060604", "cell_id": 6530, "wgs_lng": 121.428086, "wgs_lat": 31.18356}
{"id": "B0K6OUQXU9", "name": "安踏(上海徐汇飞洲国际奥莱店)", "typecode": "060900", "cell_id": 6530, "wgs_lng": 121.432676, "wgs_lat": 31.185016}
{"id": "B0LRFS6DNS", "name": "VICTOR万体专卖店(零陵路店)", "typecode": "060900", "cell_id": 6530, "wgs_lng": 121.434734, "wgs_lat": 31.185505}
{"id": "B0LRFS6DNS", "name": "VICTOR万体专卖店(零陵路店)", "typecode": "060900", "cell_id": 6530, "wgs_lng": 121.434734, "wgs_lat": 31.185505}
{"id": "B0FFIGJWY2", "name": "嘉木堂(盛源大地家居城店)", "typecode": "060602", "cell_id": 6530, "wgs_lng": 121.427682, "wgs_lat": 31.188255}
{"id": "B0G1L57LMN", "name": "Marshall马歇尔(百脑汇授权店)", "typecode": "060306", "cell_id": 6530, "wgs_lng": 121.433696, "wgs_lat": 31.192395}
{"id": "B0KRHAT63F", "name": "简繁软装", "typecode": "060000", "cell_id": 6530, "wgs_lng": 121.427109, "wgs_lat": 31.188774}
{"id": "B0J0HHVK2N", "name": "三菱重工中央空调·城市展厅·物优家", "typecode": "060300", "cell_id": 6530, "wgs_lng": 121.425724, "wgs_lat": 31.190076}
{"id": "B0J1K56ETE", "name": "德国Saunalux桑络仕桑拿房(中国旗舰店)", "typecode": "060604", "cell_id": 6530, "wgs_lng": 121.427226, "wgs_lat": 31.187522}
{"id": "B00155HNMF", "name": "良友(裕德店)", "typecode": "060200", "cell_id": 6530, "wgs_lng": 121.431549, "wgs_lat": 31.18666}
{"id": "B0M6FH00UW", "name": "JBL哈曼卡顿(百脑汇店)", "typecode": "060000", "cell_id": 6530, "wgs_lng": 121.433712, "wgs_lat": 31.192408}
{"id": "B0FFG759LF", "name": "米汁汀花艺(裕德小区店)", "typecode": "060501", "cell_id": 6530, "wgs_lng": 121.43101, "wgs_lat": 31.186082}
{"id": "B0FFLGPMT6", "name": "iQOO(百脑汇店)", "typecode": "060305", "cell_id": 6530, "wgs_lng": 121.433711, "wgs_lat": 31.192503}
{"id": "B0FFI8V2ML", "name": "联想来酷智生活专卖店(百脑汇店)", "typecode": "060306", "cell_id": 6530, "wgs_lng": 121.433767, "wgs_lat": 31.19255}
{"id": "B0L2CUIVBT", "name": "嘉客来精品水果(漕溪北路店)", "typecode": "060704", "cell_id": 6530, "wgs_lng": 121.431774, "wgs_lat": 31.187656}
{"id": "B0H3TLPQ8Y", "name": "绿联数码专卖店(上海百脑汇店)", "typecode": "060306", "cell_id": 6530, "wgs_lng": 121.4338, "wgs_lat": 31.192289}
{"id": "B0FFK00RZK", "name": "小牛电动车(南丹路店)", "typecode": "061208", "cell_id": 6530, "wgs_lng": 121.427664, "wgs_lat": 31.191119}
{"id": "B00155IQJZ", "name": "ASUS华硕数码配件", "typecode": "060200", "cell_id": 6530, "wgs_lng": 121.428632, "wgs_lat": 31.189147}
{"id": "B0I2LDZD2Y", "name": "乐分购数码", "typecode": "060306", "cell_id": 6530, "wgs_lng": 121.431587, "wgs_lat": 31.18568}
{"id": "B0I13UXNMJ", "name": "HP电脑(徐汇区店)", "typecode": "060306", "cell_id": 6530, "wgs_lng": 121.433983, "wgs_lat": 31.192338}
{"id": "B0FFKL37WU", "name": "小佩宠物(零陵店)", "typecode": "061211", "cell_id": 6530, "wgs_lng": 121.434901, "wgs_lat": 31.185668}
{"id": "B0J30C480W", "name": "皇家电玩俱乐部(百脑汇店)", "typecode": "060000", "cell_id": 6530, "wgs_lng": 121.433735, "wgs_lat": 31.192554}
{"id": "B0KUG9M4YT", "name": "世友地板", "typecode": "060603", "cell_id": 6530, "wgs_lng": 121.426012, "wgs_lat": 31.190341}
{"id": "B0K6KC1M88", "name": "LOHO眼镜(南洋1931店)", "typecode": "061204", "cell_id": 6530, "wgs_lng": 121.428444, "wgs_lat": 31.187947}
{"id": "B0MGVCFA0P", "name": "华硕电脑销售(售后总店)", "typecode": "060306", "cell_id": 6530, "wgs_lng": 121.427832, "wgs_lat": 31.187459}
{"id": "B0L2270OX0", "name": "沐淘瓷砖", "typecode": "060603", "cell_id": 6530, "wgs_lng": 121.426691, "wgs_lat": 31.188783}
{"id": "B0K30AV5MO", "name": "捷升精工·楼梯", "typecode": "060603", "cell_id": 6530, "wgs_lng": 121.425695, "wgs_lat": 31.190502}
{"id": "B0GUKMDQZ7", "name": "RELX悦刻(百脑汇店)", "typecode": "061200", "cell_id": 6530, "wgs_lng": 121.433712, "wgs_lat": 31.192458}
